{"1":{"id":1,"name":"אל רום","areaId":"1","geodata":[{"address_components":[{"long_name":"El-Rum","short_name":"El-Rum","types":["locality","political"]}],"formatted_address":"El-Rum","geometry":{"bounds":{"northeast":{"lat":33.1827811,"lng":35.7750641},"southwest":{"lat":33.176116,"lng":35.766402}},"location":{"lat":33.180519,"lng":35.770095},"location_type":"APPROXIMATE","viewport":{"northeast":{"lat":33.1827811,"lng":35.7750641},"southwest":{"lat":33.176116,"lng":35.766402}}},"types":["locality","political"]}]},"2":{"id":2,"name":"בוקעתא","areaId":"1","geodata":[{"address_components":[{"long_name":"Buq'ata","short_name":"Buq'ata","types":["locality","political"]}],"formatted_address":"Buq'ata","geometry":{"bounds":{"northeast":{"lat":33.239228,"lng":35.8084861},"southwest":{"lat":33.180769,"lng":35.751464}},"location":{"lat":33.203065,"lng":35.779198},"location_type":"APPROXIMATE","viewport":{"northeast":{"lat":33.239228,"lng":35.8084861},"southwest":{"lat":33.180769,"lng":35.751464}}},"types":["locality","political"]}]},"3":{"id":3,"name":"מג'דל שמס","areaId":"1","geodata":[{"address_components":[{"long_name":"Majdal al-Shams","short_name":"Majdal al-Shams","types":["locality","political"]}],"formatted_address":"Majdal al-Shams","geometry":{"bounds":{"northeast":{"lat":33.300717,"lng":35.79805899999999},"southwest":{"lat":33.23705,"lng":35.753512}},"location":{"lat":33.267942,"lng":35.77334400000001},"location_type":"APPROXIMATE","viewport":{"northeast":{"lat":33.300717,"lng":35.79805899999999},"southwest":{"lat":33.23705,"lng":35.753512}}},"types":["locality","political"]}]},"4":{"id":4,"name":"מסעדה","areaId":"1","geodata":[{"address_components":[{"long_name":"Mas'ada","short_name":"Mas'ada","types":["locality","political"]}],"formatted_address":"Mas'ada","geometry":{"bounds":{"northeast":{"lat":33.251749,"lng":35.805765},"southwest":{"lat":33.2043221,"lng":35.742541}},"location":{"lat":33.23105,"lng":35.756289},"location_type":"APPROXIMATE","viewport":{"northeast":{"lat":33.251749,"lng":35.805765},"southwest":{"lat":33.2043221,"lng":35.742541}}},"types":["locality","political"]}]},"5":{"id":5,"name":"נווה אטי''ב","areaId":"1","geodata":[{"address_components":[{"long_name":"Neve Ativ","short_name":"Neve Ativ","types":["locality","political"]}],"formatted_address":"Neve Ativ","geometry":{"bounds":{"northeast":{"lat":33.2648701,"lng":35.74610699999999},"southwest":{"lat":33.260472,"lng":35.737976}},"location":{"lat":33.26202,"lng":35.740574},"location_type":"APPROXIMATE","viewport":{"northeast":{"lat":33.2648701,"lng":35.74610699999999},"southwest":{"lat":33.260472,"lng":35.737976}}},"partial_match":true,"types":["locality","political"]}]},"6":{"id":6,"name":"נמרוד","areaId":"1","geodata":[{"address_components":[{"long_name":"Nimrod","short_name":"Nimrod","types":["locality","political"]}],"formatted_address":"Nimrod","geometry":{"bounds":{"northeast":{"lat":33.246983,"lng":35.753882},"southwest":{"lat":33.2428989,"lng":35.749089}},"location":{"lat":33.244978,"lng":35.750842},"location_type":"APPROXIMATE","viewport":{"northeast":{"lat":33.246983,"lng":35.753882},"southwest":{"lat":33.2428989,"lng":35.749089}}},"types":["locality","political"]}]},"7":{"id":7,"name":"עין קנייא","areaId":"1","geodata":[{"address_components":[{"long_name":"Ein Kinya","short_name":"Ein Kinya","types":["locality","political"]}],"formatted_address":"Ein Kinya","geometry":{"bounds":{"northeast":{"lat":33.25282,"lng":35.748393},"southwest":{"lat":33.225705,"lng":35.720421}},"location":{"lat":33.237363,"lng":35.731313},"location_type":"APPROXIMATE","viewport":{"northeast":{"lat":33.25282,"lng":35.748393},"southwest":{"lat":33.225705,"lng":35.720421}}},"types":["locality","political"]}]},"8":{"id":8,"name":"אבני איתן","areaId":"2","geodata":[{"address_components":[{"long_name":"Avnei Eitan","short_name":"Avnei Eitan","types":["locality","political"]}],"formatted_address":"Avnei Eitan","geometry":{"bounds":{"northeast":{"lat":32.831008,"lng":35.7741111},"southwest":{"lat":32.8155,"lng":35.758581}},"location":{"lat":32.824808,"lng":35.765777},"location_type":"APPROXIMATE","viewport":{"northeast":{"lat":32.831008,"lng":35.7741111},"southwest":{"lat":32.8155,"lng":35.758581}}},"types":["locality","political"]}]},"9":{"id":9,"name":"אזור תעשייה בני יהודה","areaId":"2","geodata":[{"address_components":[{"long_name":"אזור תעשייה בני יהודה","short_name":"אזור תעשייה בני יהודה","types":["bus_station","transit_station","establishment"]}],"formatted_address":"אזור תעשייה בני יהודה","geometry":{"location":{"lat":32.803805,"lng":35.716419},"location_type":"APPROXIMATE","viewport":{"northeast":{"lat":32.80515398029149,"lng":35.71776798029151},"southwest":{"lat":32.80245601970849,"lng":35.71507001970851}}},"types":["bus_station","transit_station","establishment"]}]},"10":{"id":10,"name":"אלי עד","areaId":"2","geodata":[{"address_components":[{"long_name":"Eliad","short_name":"Eliad","types":["locality","political"]}],"formatted_address":"Eliad","geometry":{"bounds":{"northeast":{"lat":32.813284,"lng":35.745061},"southwest":{"lat":32.7966779,"lng":35.724891}},"location":{"lat":32.806583,"lng":35.73657499999999},"location_type":"APPROXIMATE","viewport":{"northeast":{"lat":32.813284,"lng":35.745061},"southwest":{"lat":32.7966779,"lng":35.724891}}},"types":["locality","political"]}]},"11":{"id":11,"name":"אפיק","areaId":"2","geodata":[{"address_components":[{"long_name":"Afik","short_name":"Afik","types":["locality","political"]}],"formatted_address":"Afik","geometry":{"bounds":{"northeast":{"lat":32.783826,"lng":35.707414},"southwest":{"lat":32.77570100000001,"lng":35.696251}},"location":{"lat":32.779428,"lng":35.702994},"location_type":"APPROXIMATE","viewport":{"northeast":{"lat":32.783826,"lng":35.707414},"southwest":{"lat":32.77570100000001,"lng":35.696251}}},"types":["locality","political"]}]},"12":{"id":12,"name":"בני יהודה","areaId":"2","geodata":[{"address_components":[{"long_name":"Bnei Yehuda","short_name":"Bnei Yehuda","types":["locality","political"]}],"formatted_address":"Bnei Yehuda","geometry":{"bounds":{"northeast":{"lat":32.802283,"lng":35.695128},"southwest":{"lat":32.794617,"lng":35.6849639}},"location":{"lat":32.798262,"lng":35.69107},"location_type":"APPROXIMATE","viewport":{"northeast":{"lat":32.802283,"lng":35.695128},"southwest":{"lat":32.794617,"lng":35.6849639}}},"types":["locality","political"]}]},"13":{"id":13,"name":"גבעת יואב","areaId":"2","geodata":[{"address_components":[{"long_name":"Giv'at Yo'av","short_name":"Giv'at Yo'av","types":["locality","political"]}],"formatted_address":"Giv'at Yo'av","geometry":{"bounds":{"northeast":{"lat":32.8047471,"lng":35.688217},"southwest":{"lat":32.79139,"lng":35.6758621}},"location":{"lat":32.801217,"lng":35.680911},"location_type":"APPROXIMATE","viewport":{"northeast":{"lat":32.8047471,"lng":35.688217},"southwest":{"lat":32.79139,"lng":35.6758621}}},"types":["locality","political"]}]},"14":{"id":14,"name":"גשור","areaId":"2","geodata":[{"address_components":[{"long_name":"Gshur","short_name":"Gshur","types":["locality","political"]}],"formatted_address":"Gshur","geometry":{"bounds":{"northeast":{"lat":32.823629,"lng":35.727898},"southwest":{"lat":32.811643,"lng":35.709346}},"location":{"lat":32.819941,"lng":35.715708},"location_type":"APPROXIMATE","viewport":{"northeast":{"lat":32.823629,"lng":35.727898},"southwest":{"lat":32.811643,"lng":35.709346}}},"types":["locality","political"]}]},"15":{"id":15,"name":"חמת גדר","areaId":"2","geodata":[{"address_components":[{"long_name":"Hamat Gader","short_name":"Hamat Gader","types":["locality","political"]}],"formatted_address":"Hamat Gader","geometry":{"location":{"lat":32.6833586,"lng":35.6647332},"location_type":"APPROXIMATE","viewport":{"northeast":{"lat":32.6927494,"lng":35.6807406},"southwest":{"lat":32.6739668,"lng":35.6487258}}},"types":["locality","political"]}]},"16":{"id":16,"name":"חספין","areaId":"2","geodata":[{"address_components":[{"long_name":"Haspin","short_name":"Haspin","types":["locality","political"]}],"formatted_address":"Haspin","geometry":{"bounds":{"northeast":{"lat":32.8522639,"lng":35.799983},"southwest":{"lat":32.8381469,"lng":35.786181}},"location":{"lat":32.8456305,"lng":35.7929907},"location_type":"APPROXIMATE","viewport":{"northeast":{"lat":32.8522639,"lng":35.799983},"southwest":{"lat":32.8381469,"lng":35.786181}}},"types":["locality","political"]}]},"17":{"id":17,"name":"כפר חרוב","areaId":"2","geodata":[{"address_components":[{"long_name":"Kfar Haruv","short_name":"Kfar Haruv","types":["locality","political"]}],"formatted_address":"Kfar Haruv","geometry":{"bounds":{"northeast":{"lat":32.7680159,"lng":35.6706841},"southwest":{"lat":32.75793700000001,"lng":35.658868}},"location":{"lat":32.762357,"lng":35.66418},"location_type":"APPROXIMATE","viewport":{"northeast":{"lat":32.7680159,"lng":35.6706841},"southwest":{"lat":32.75793700000001,"lng":35.658868}}},"types":["locality","political"]}]},"18":{"id":18,"name":"מבוא חמה","areaId":"2","geodata":[{"address_components":[{"long_name":"Mevo Hama","short_name":"Mevo Hama","types":["locality","political"]}],"formatted_address":"Mevo Hama","geometry":{"bounds":{"northeast":{"lat":32.742441,"lng":35.6592121},"southwest":{"lat":32.7325269,"lng":35.651754}},"location":{"lat":32.736701,"lng":35.655207},"location_type":"APPROXIMATE","viewport":{"northeast":{"lat":32.742441,"lng":35.6592121},"southwest":{"lat":32.7325269,"lng":35.651754}}},"types":["locality","political"]}]},"19":{"id":19,"name":"מיצר","areaId":"2","geodata":[{"address_components":[{"long_name":"Meitsar","short_name":"Meitsar","types":["locality","political"]}],"formatted_address":"Meitsar","geometry":{"bounds":{"northeast":{"lat":32.771738,"lng":35.7406779},"southwest":{"lat":32.765208,"lng":35.7323}},"location":{"lat":32.768641,"lng":35.736356},"location_type":"APPROXIMATE","viewport":{"northeast":{"lat":32.771738,"lng":35.7406779},"southwest":{"lat":32.765208,"lng":35.7323}}},"types":["locality","political"]}]},"20":{"id":20,"name":"נאות גולן","areaId":"2","geodata":[{"address_components":[{"long_name":"Ne'ot Golan","short_name":"Ne'ot Golan","types":["locality","political"]}],"formatted_address":"Ne'ot Golan","geometry":{"bounds":{"northeast":{"lat":32.7924099,"lng":35.69960700000001},"southwest":{"lat":32.7801839,"lng":35.682295}},"location":{"lat":32.787026,"lng":35.693172},"location_type":"APPROXIMATE","viewport":{"northeast":{"lat":32.7924099,"lng":35.69960700000001},"southwest":{"lat":32.7801839,"lng":35.682295}}},"types":["locality","political"]}]},"21":{"id":21,"name":"נוב","areaId":"2","geodata":[{"address_components":[{"long_name":"Nov","short_name":"Nov","types":["locality","political"]}],"formatted_address":"Nov","geometry":{"bounds":{"northeast":{"lat":32.83903900000001,"lng":35.7916459},"southwest":{"lat":32.8259961,"lng":35.7749909}},"location":{"lat":32.832852,"lng":35.783574},"location_type":"APPROXIMATE","viewport":{"northeast":{"lat":32.83903900000001,"lng":35.7916459},"southwest":{"lat":32.8259961,"lng":35.7749909}}},"types":["locality","political"]}]},"22":{"id":22,"name":"נטור","areaId":"2","geodata":[{"address_components":[{"long_name":"Natur","short_name":"Natur","types":["locality","political"]}],"formatted_address":"Natur","geometry":{"bounds":{"northeast":{"lat":32.858509,"lng":35.75795},"southwest":{"lat":32.8486699,"lng":35.7468491}},"location":{"lat":32.854068,"lng":35.752574},"location_type":"APPROXIMATE","viewport":{"northeast":{"lat":32.858509,"lng":35.75795},"southwest":{"lat":32.8486699,"lng":35.7468491}}},"types":["locality","political"]}]},"23":{"id":23,"name":"רמת מגשימים","areaId":"2","geodata":[{"address_components":[{"long_name":"Ramat Magshimim","short_name":"Ramat Magshimim","types":["locality","political"]}],"formatted_address":"Ramat Magshimim","geometry":{"bounds":{"northeast":{"lat":32.85001,"lng":35.812959},"southwest":{"lat":32.840702,"lng":35.8025949}},"location":{"lat":32.84406600000001,"lng":35.80658},"location_type":"APPROXIMATE","viewport":{"northeast":{"lat":32.85001,"lng":35.812959},"southwest":{"lat":32.840702,"lng":35.8025949}}},"types":["locality","political"]}]},"24":{"id":24,"name":"אורטל","areaId":"3","geodata":[{"address_components":[{"long_name":"Ortal","short_name":"Ortal","types":["locality","political"]}],"formatted_address":"Ortal","geometry":{"bounds":{"northeast":{"lat":33.092258,"lng":35.764046},"southwest":{"lat":33.082694,"lng":35.7543521}},"location":{"lat":33.086236,"lng":35.758661},"location_type":"APPROXIMATE","viewport":{"northeast":{"lat":33.092258,"lng":35.764046},"southwest":{"lat":33.082694,"lng":35.7543521}}},"types":["locality","political"]}]},"25":{"id":25,"name":"אלוני הבשן","areaId":"3","geodata":[{"address_components":[{"long_name":"Alonei Habashan","short_name":"Alonei Habashan","types":["locality","political"]}],"formatted_address":"Alonei Habashan","geometry":{"bounds":{"northeast":{"lat":33.0470841,"lng":35.841708},"southwest":{"lat":33.0406281,"lng":35.8350679}},"location":{"lat":33.044087,"lng":35.838507},"location_type":"APPROXIMATE","viewport":{"northeast":{"lat":33.0470841,"lng":35.841708},"southwest":{"lat":33.0406281,"lng":35.8350679}}},"types":["locality","political"]}]},"26":{"id":26,"name":"יונתן","areaId":"3","geodata":[{"address_components":[{"long_name":"Yonatan","short_name":"Yonatan","types":["locality","political"]}],"formatted_address":"Yonatan","geometry":{"bounds":{"northeast":{"lat":32.9413071,"lng":35.7986551},"southwest":{"lat":32.936753,"lng":35.79113090000001}},"location":{"lat":32.93966,"lng":35.795468},"location_type":"APPROXIMATE","viewport":{"northeast":{"lat":32.9413071,"lng":35.7986551},"southwest":{"lat":32.936753,"lng":35.79113090000001}}},"types":["locality","political"]}]},"27":{"id":27,"name":"מרום גולן","areaId":"3","geodata":[{"address_components":[{"long_name":"Merom Golan","short_name":"Merom Golan","types":["locality","political"]}],"formatted_address":"Merom Golan","geometry":{"bounds":{"northeast":{"lat":33.1369761,"lng":35.780013},"southwest":{"lat":33.129081,"lng":35.772786}},"location":{"lat":33.132583,"lng":35.77707100000001},"location_type":"APPROXIMATE","viewport":{"northeast":{"lat":33.1369761,"lng":35.780013},"southwest":{"lat":33.129081,"lng":35.772786}}},"types":["locality","political"]}]},"28":{"id":28,"name":"עין זיוון","areaId":"3","geodata":[{"address_components":[{"long_name":"Ein Zivan","short_name":"Ein Zivan","types":["locality","political"]}],"formatted_address":"Ein Zivan","geometry":{"bounds":{"northeast":{"lat":33.0996631,"lng":35.80037900000001},"southwest":{"lat":33.093215,"lng":35.7911339}},"location":{"lat":33.09645,"lng":35.796313},"location_type":"APPROXIMATE","viewport":{"northeast":{"lat":33.0996631,"lng":35.80037900000001},"southwest":{"lat":33.093215,"lng":35.7911339}}},"types":["locality","political"]}]},"29":{"id":29,"name":"קשת","areaId":"3","geodata":[{"address_components":[{"long_name":"Keshet","short_name":"Keshet","types":["locality","political"]}],"formatted_address":"Keshet","geometry":{"bounds":{"northeast":{"lat":32.9855421,"lng":35.813796},"southwest":{"lat":32.972658,"lng":35.803617}},"location":{"lat":32.980388,"lng":35.808484},"location_type":"APPROXIMATE","viewport":{"northeast":{"lat":32.9855421,"lng":35.813796},"southwest":{"lat":32.972658,"lng":35.803617}}},"types":["locality","political"]}]},"30":{"id":30,"name":"א סלבה","areaId":"7","geodata":[{"address_components":[{"long_name":"al-Saliba","short_name":"al-Saliba","types":["locality","political"]}],"formatted_address":"al-Saliba","geometry":{"location":{"lat":32.929395,"lng":35.71276599999999},"location_type":"APPROXIMATE","viewport":{"northeast":{"lat":32.9387599,"lng":35.7287734},"southwest":{"lat":32.9200291,"lng":35.6967586}}},"types":["locality","political"]}]},"31":{"id":31,"name":"אניעם","areaId":"7","geodata":[{"address_components":[{"long_name":"Ani'am","short_name":"Ani'am","types":["locality","political"]}],"formatted_address":"Ani'am","geometry":{"bounds":{"northeast":{"lat":32.959967,"lng":35.746659},"southwest":{"lat":32.953508,"lng":35.734564}},"location":{"lat":32.956638,"lng":35.739718},"location_type":"APPROXIMATE","viewport":{"northeast":{"lat":32.959967,"lng":35.746659},"southwest":{"lat":32.953508,"lng":35.734564}}},"types":["locality","political"]}]},"32":{"id":32,"name":"חד נס","areaId":"7","geodata":[{"address_components":[{"long_name":"Had Nes","short_name":"Had Nes","types":["locality","political"]}],"formatted_address":"Had Nes","geometry":{"bounds":{"northeast":{"lat":32.939865,"lng":35.645512},"southwest":{"lat":32.9244211,"lng":35.6342129}},"location":{"lat":32.927514,"lng":35.641408},"location_type":"APPROXIMATE","viewport":{"northeast":{"lat":32.939865,"lng":35.645512},"southwest":{"lat":32.9244211,"lng":35.6342129}}},"types":["locality","political"]}]},"33":{"id":33,"name":"כנף","areaId":"7","geodata":[{"address_components":[{"long_name":"Kanaf","short_name":"Kanaf","types":["locality","political"]}],"formatted_address":"Kanaf","geometry":{"bounds":{"northeast":{"lat":32.874518,"lng":35.70231},"southwest":{"lat":32.865961,"lng":35.6923441}},"location":{"lat":32.870412,"lng":35.697897},"location_type":"APPROXIMATE","viewport":{"northeast":{"lat":32.874518,"lng":35.70231},"southwest":{"lat":32.865961,"lng":35.6923441}}},"types":["locality","political"]}]},"34":{"id":34,"name":"מעלה גמלא","areaId":"7","geodata":[{"address_components":[{"long_name":"Ma'ale Gamla","short_name":"Ma'ale Gamla","types":["locality","political"]}],"formatted_address":"Ma'ale Gamla","geometry":{"bounds":{"northeast":{"lat":32.8958989,"lng":35.691237},"southwest":{"lat":32.8788951,"lng":35.6740529}},"location":{"lat":32.88825600000001,"lng":35.685966},"location_type":"APPROXIMATE","viewport":{"northeast":{"lat":32.8958989,"lng":35.691237},"southwest":{"lat":32.8788951,"lng":35.6740529}}},"types":["locality","political"]}]},"35":{"id":35,"name":"קדמת צבי","areaId":"7","geodata":[{"address_components":[{"long_name":"Kidmat Tsvi","short_name":"Kidmat Tsvi","types":["locality","political"]}],"formatted_address":"Kidmat Tsvi","geometry":{"bounds":{"northeast":{"lat":33.033561,"lng":35.703242},"southwest":{"lat":33.02658900000001,"lng":35.6925499}},"location":{"lat":33.029485,"lng":35.69774400000001},"location_type":"APPROXIMATE","viewport":{"northeast":{"lat":33.033561,"lng":35.703242},"southwest":{"lat":33.02658900000001,"lng":35.6925499}}},"types":["locality","political"]}]},"36":{"id":36,"name":"קלע","areaId":"7","geodata":[{"address_components":[{"long_name":"Bruchim Qela' Alon","short_name":"Bruchim Qela' Alon","types":["locality","political"]}],"formatted_address":"Bruchim Qela' Alon","geometry":{"bounds":{"northeast":{"lat":33.134521,"lng":35.693915},"southwest":{"lat":33.127925,"lng":35.679846}},"location":{"lat":33.131601,"lng":35.69039},"location_type":"APPROXIMATE","viewport":{"northeast":{"lat":33.134521,"lng":35.693915},"southwest":{"lat":33.127925,"lng":35.679846}}},"types":["locality","political"]}]},"37":{"id":37,"name":"קצרין","areaId":"7","geodata":[{"address_components":[{"long_name":"Qatsrin","short_name":"Qatsrin","types":["locality","political"]}],"formatted_address":"Qatsrin","geometry":{"bounds":{"northeast":{"lat":33.007238,"lng":35.7184441},"southwest":{"lat":32.981124,"lng":35.672371}},"location":{"lat":32.990998,"lng":35.689865},"location_type":"APPROXIMATE","viewport":{"northeast":{"lat":33.007238,"lng":35.7184441},"southwest":{"lat":32.981124,"lng":35.672371}}},"types":["locality","political"]}]},"38":{"id":38,"name":"שעל","areaId":"7","geodata":[{"address_components":[{"long_name":"Sha'al","short_name":"Sha'al","types":["locality","political"]}],"formatted_address":"Sha'al","geometry":{"bounds":{"northeast":{"lat":33.121293,"lng":35.7222981},"southwest":{"lat":33.1130399,"lng":35.713741}},"location":{"lat":33.11653,"lng":35.718816},"location_type":"APPROXIMATE","viewport":{"northeast":{"lat":33.121293,"lng":35.7222981},"southwest":{"lat":33.1130399,"lng":35.713741}}},"types":["locality","political"]}]},"39":{"id":39,"name":"האון","areaId":"10","geodata":[{"address_components":[{"long_name":"HaOn","short_name":"HaOn","types":["locality","political"]}],"formatted_address":"HaOn","geometry":{"bounds":{"northeast":{"lat":32.72992,"lng":35.6267751},"southwest":{"lat":32.722999,"lng":35.6191201}},"location":{"lat":32.726748,"lng":35.622665},"location_type":"APPROXIMATE","viewport":{"northeast":{"lat":32.72992,"lng":35.6267751},"southwest":{"lat":32.722999,"lng":35.6191201}}},"types":["locality","political"]}]},"40":{"id":40,"name":"מסדה","areaId":"10","geodata":[{"address_components":[{"long_name":"Masada, Emek HaYarden","short_name":"Masada, Emek HaYarden","types":["locality","political"]},{"long_name":"Israel","short_name":"IL","types":["country","political"]}],"formatted_address":"Masada, Emek HaYarden, Israel","geometry":{"bounds":{"northeast":{"lat":32.686265,"lng":35.601445},"southwest":{"lat":32.679641,"lng":35.594384}},"location":{"lat":32.682305,"lng":35.597657},"location_type":"APPROXIMATE","viewport":{"northeast":{"lat":32.686265,"lng":35.601445},"southwest":{"lat":32.679641,"lng":35.594384}}},"types":["locality","political"]}]},"41":{"id":41,"name":"מעגן","areaId":"10","geodata":[{"address_components":[{"long_name":"Ma'agan","short_name":"Ma'agan","types":["locality","political"]}],"formatted_address":"Ma'agan","geometry":{"bounds":{"northeast":{"lat":32.7096239,"lng":35.606013},"southwest":{"lat":32.702189,"lng":35.5970739}},"location":{"lat":32.706344,"lng":35.600575},"location_type":"APPROXIMATE","viewport":{"northeast":{"lat":32.7096239,"lng":35.606013},"southwest":{"lat":32.702189,"lng":35.5970739}}},"types":["locality","political"]}]},"42":{"id":42,"name":"עין גב","areaId":"10","geodata":[{"address_components":[{"long_name":"Ein Gev","short_name":"Ein Gev","types":["locality","political"]},{"long_name":"Israel","short_name":"IL","types":["country","political"]}],"formatted_address":"Ein Gev, Israel","geometry":{"bounds":{"northeast":{"lat":32.7880891,"lng":35.6409021},"southwest":{"lat":32.778681,"lng":35.6358101}},"location":{"lat":32.783393,"lng":35.640119},"location_type":"APPROXIMATE","viewport":{"northeast":{"lat":32.7880891,"lng":35.6409021},"southwest":{"lat":32.778681,"lng":35.6358101}}},"types":["locality","political"]}]},"43":{"id":43,"name":"רמות","areaId":"10","geodata":[{"address_components":[{"long_name":"Ramot","short_name":"Ramot","types":["locality","political"]}],"formatted_address":"Ramot","geometry":{"bounds":{"northeast":{"lat":32.8598401,"lng":35.6730789},"southwest":{"lat":32.8398211,"lng":35.657461}},"location":{"lat":32.850365,"lng":35.665245},"location_type":"APPROXIMATE","viewport":{"northeast":{"lat":32.8598401,"lng":35.6730789},"southwest":{"lat":32.8398211,"lng":35.657461}}},"types":["locality","political"]}]},"44":{"id":44,"name":"שער הגולן","areaId":"10","geodata":[{"address_components":[{"long_name":"Sha'ar HaGolan","short_name":"Sha'ar HaGolan","types":["locality","political"]},{"long_name":"Israel","short_name":"IL","types":["country","political"]}],"formatted_address":"Sha'ar HaGolan, Israel","geometry":{"bounds":{"northeast":{"lat":32.6910031,"lng":35.6087819},"southwest":{"lat":32.682938,"lng":35.5997789}},"location":{"lat":32.686919,"lng":35.604656},"location_type":"APPROXIMATE","viewport":{"northeast":{"lat":32.6910031,"lng":35.6087819},"southwest":{"lat":32.682938,"lng":35.5997789}}},"types":["locality","political"]}]},"45":{"id":45,"name":"תל קציר","areaId":"10","geodata":[{"address_components":[{"long_name":"Tel Kazir","short_name":"Tel Kazir","types":["locality","political"]}],"formatted_address":"Tel Kazir","geometry":{"bounds":{"northeast":{"lat":32.710063,"lng":35.6201069},"southwest":{"lat":32.701434,"lng":35.613377}},"location":{"lat":32.706396,"lng":35.61786},"location_type":"APPROXIMATE","viewport":{"northeast":{"lat":32.710063,"lng":35.6201069},"southwest":{"lat":32.701434,"lng":35.613377}}},"types":["locality","political"]}]},"46":{"id":46,"name":"בצת","areaId":"14","geodata":[{"address_components":[{"long_name":"Betzet","short_name":"Betzet","types":["locality","political"]},{"long_name":"Israel","short_name":"IL","types":["country","political"]}],"formatted_address":"Betzet, Israel","geometry":{"bounds":{"northeast":{"lat":33.0774649,"lng":35.1421001},"southwest":{"lat":33.0634899,"lng":35.123351}},"location":{"lat":33.070047,"lng":35.132636},"location_type":"APPROXIMATE","viewport":{"northeast":{"lat":33.0774649,"lng":35.1421001},"southwest":{"lat":33.0634899,"lng":35.123351}}},"types":["locality","political"]}]},"47":{"id":47,"name":"כפר ראש הנקרה","areaId":"14","geodata":[{"address_components":[{"long_name":"Rosh HaNikra","short_name":"Rosh HaNikra","types":["locality","political"]},{"long_name":"Israel","short_name":"IL","types":["country","political"]}],"formatted_address":"Rosh HaNikra, Israel","geometry":{"bounds":{"northeast":{"lat":33.090568,"lng":35.1223951},"southwest":{"lat":33.081814,"lng":35.1089059}},"location":{"lat":33.08609,"lng":35.113455},"location_type":"APPROXIMATE","viewport":{"northeast":{"lat":33.090568,"lng":35.1223951},"southwest":{"lat":33.081814,"lng":35.1089059}}},"types":["locality","political"]}]},"48":{"id":48,"name":"לימן","areaId":"14","geodata":[{"address_components":[{"long_name":"Liman, Israel","short_name":"Liman, Israel","types":["locality","political"]},{"long_name":"Israel","short_name":"IL","types":["country","political"]}],"formatted_address":"Liman, Israel, Israel","geometry":{"bounds":{"northeast":{"lat":33.0678591,"lng":35.123838},"southwest":{"lat":33.050386,"lng":35.103829}},"location":{"lat":33.058732,"lng":35.111815},"location_type":"APPROXIMATE","viewport":{"northeast":{"lat":33.0678591,"lng":35.123838},"southwest":{"lat":33.050386,"lng":35.103829}}},"types":["locality","political"]}]},"49":{"id":49,"name":"מצובה","areaId":"14","geodata":[{"address_components":[{"long_name":"Matzuva","short_name":"Matzuva","types":["locality","political"]},{"long_name":"Israel","short_name":"IL","types":["country","political"]}],"formatted_address":"Matzuva, Israel","geometry":{"bounds":{"northeast":{"lat":33.066831,"lng":35.1643561},"southwest":{"lat":33.0586241,"lng":35.151185}},"location":{"lat":33.062312,"lng":35.155705},"location_type":"APPROXIMATE","viewport":{"northeast":{"lat":33.066831,"lng":35.1643561},"southwest":{"lat":33.0586241,"lng":35.151185}}},"types":["locality","political"]}]},"50":{"id":50,"name":"שלומי","areaId":"14","geodata":[{"address_components":[{"long_name":"Shlomi, Israel","short_name":"Shlomi, Israel","types":["locality","political"]},{"long_name":"Israel","short_name":"IL","types":["country","political"]}],"formatted_address":"Shlomi, Israel, Israel","geometry":{"bounds":{"northeast":{"lat":33.0867744,"lng":35.162694},"southwest":{"lat":33.045421,"lng":35.130181}},"location":{"lat":33.072609,"lng":35.145945},"location_type":"APPROXIMATE","viewport":{"northeast":{"lat":33.0867744,"lng":35.162694},"southwest":{"lat":33.045421,"lng":35.130181}}},"types":["locality","political"]}]},"51":{"id":51,"name":"א נוואקיר","areaId":"15","geodata":[{"address_components":[{"long_name":"al-Nawaqir","short_name":"al-Nawaqir","types":["locality","political"]},{"long_name":"Israel","short_name":"IL","types":["country","political"]}],"formatted_address":"al-Nawaqir, Israel","geometry":{"location":{"lat":33.090788,"lng":35.213638},"location_type":"APPROXIMATE","viewport":{"northeast":{"lat":33.1001357,"lng":35.2296454},"southwest":{"lat":33.0814393,"lng":35.1976306}}},"types":["locality","political"]}]},"52":{"id":52,"name":"אדמית","areaId":"15","geodata":[{"address_components":[{"long_name":"Adamit","short_name":"Adamit","types":["locality","political"]},{"long_name":"Israel","short_name":"IL","types":["country","political"]}],"formatted_address":"Adamit, Israel","geometry":{"bounds":{"northeast":{"lat":33.081365,"lng":35.216692},"southwest":{"lat":33.076936,"lng":35.202116}},"location":{"lat":33.078842,"lng":35.20951},"location_type":"APPROXIMATE","viewport":{"northeast":{"lat":33.081365,"lng":35.216692},"southwest":{"lat":33.076936,"lng":35.202116}}},"types":["locality","political"]}]},"53":{"id":53,"name":"אידמית","areaId":"15","geodata":[{"address_components":[{"long_name":"Idmit","short_name":"Idmit","types":["sublocality_level_1","sublocality","political"]},{"long_name":"Israel","short_name":"IL","types":["country","political"]}],"formatted_address":"Idmit, Israel","geometry":{"location":{"lat":33.080013,"lng":35.199967},"location_type":"APPROXIMATE","viewport":{"northeast":{"lat":33.0893619,"lng":35.2159744},"southwest":{"lat":33.0706631,"lng":35.1839596}}},"types":["sublocality_level_1","sublocality","political"]}]},"54":{"id":54,"name":"אילון","areaId":"15","geodata":[{"address_components":[{"long_name":"Eilon","short_name":"Eilon","types":["locality","political"]},{"long_name":"Israel","short_name":"IL","types":["country","political"]}],"formatted_address":"Eilon, Israel","geometry":{"bounds":{"northeast":{"lat":33.068972,"lng":35.227492},"southwest":{"lat":33.057826,"lng":35.207963}},"location":{"lat":33.062526,"lng":35.219162},"location_type":"APPROXIMATE","viewport":{"northeast":{"lat":33.068972,"lng":35.227492},"southwest":{"lat":33.057826,"lng":35.207963}}},"types":["locality","political"]}]},"55":{"id":55,"name":"ג'ורדיח","areaId":"15","geodata":[{"address_components":[{"long_name":"Jordeikh","short_name":"Jordeikh","types":["locality","political"]},{"long_name":"Israel","short_name":"IL","types":["country","political"]}],"formatted_address":"Jordeikh, Israel","geometry":{"location":{"lat":33.097041,"lng":35.221622},"location_type":"APPROXIMATE","viewport":{"northeast":{"lat":33.1063881,"lng":35.2376294},"southwest":{"lat":33.0876929,"lng":35.2056146}}},"types":["locality","political"]}]},"56":{"id":56,"name":"גורן","areaId":"15","geodata":[{"address_components":[{"long_name":"Goren","short_name":"Goren","types":["locality","political"]},{"long_name":"Israel","short_name":"IL","types":["country","political"]}],"formatted_address":"Goren, Israel","geometry":{"bounds":{"northeast":{"lat":33.05988,"lng":35.246492},"southwest":{"lat":33.0536181,"lng":35.231483}},"location":{"lat":33.055566,"lng":35.233619},"location_type":"APPROXIMATE","viewport":{"northeast":{"lat":33.05988,"lng":35.246492},"southwest":{"lat":33.0536181,"lng":35.231483}}},"types":["locality","political"]}]},"57":{"id":57,"name":"גורנות הגליל","areaId":"15","geodata":[{"address_components":[{"long_name":"Gornot HaGalil","short_name":"Gornot HaGalil","types":["locality","political"]},{"long_name":"Israel","short_name":"IL","types":["country","political"]}],"formatted_address":"Gornot HaGalil, Israel","geometry":{"bounds":{"northeast":{"lat":33.0619631,"lng":35.253144},"southwest":{"lat":33.057094,"lng":35.2473099}},"location":{"lat":33.059286,"lng":35.24967},"location_type":"APPROXIMATE","viewport":{"northeast":{"lat":33.0619631,"lng":35.253144},"southwest":{"lat":33.057094,"lng":35.2473099}}},"types":["locality","political"]}]},"58":{"id":58,"name":"חניתה","areaId":"15","geodata":[{"address_components":[{"long_name":"Hanita","short_name":"Hanita","types":["locality","political"]},{"long_name":"Israel","short_name":"IL","types":["country","political"]}],"formatted_address":"Hanita, Israel","geometry":{"bounds":{"northeast":{"lat":33.0910101,"lng":35.181806},"southwest":{"lat":33.083608,"lng":35.1663139}},"location":{"lat":33.087634,"lng":35.17343},"location_type":"APPROXIMATE","viewport":{"northeast":{"lat":33.0910101,"lng":35.181806},"southwest":{"lat":33.083608,"lng":35.1663139}}},"types":["locality","political"]}]},"59":{"id":59,"name":"יערה","areaId":"15","geodata":[{"address_components":[{"long_name":"Ya'ara","short_name":"Ya'ara","types":["locality","political"]},{"long_name":"Israel","short_name":"IL","types":["country","political"]}],"formatted_address":"Ya'ara, Israel","geometry":{"bounds":{"northeast":{"lat":33.0705929,"lng":35.1944},"southwest":{"lat":33.062957,"lng":35.1731}},"location":{"lat":33.068013,"lng":35.18608},"location_type":"APPROXIMATE","viewport":{"northeast":{"lat":33.0705929,"lng":35.1944},"southwest":{"lat":33.062957,"lng":35.1731}}},"types":["locality","political"]}]},"60":{"id":60,"name":"עראמשה","areaId":"15","geodata":[{"address_components":[{"long_name":"Arab al-Aramshe","short_name":"Arab al-Aramshe","types":["locality","political"]},{"long_name":"Israel","short_name":"IL","types":["country","political"]}],"formatted_address":"Arab al-Aramshe, Israel","geometry":{"bounds":{"northeast":{"lat":33.0957351,"lng":35.23255109999999},"southwest":{"lat":33.0819909,"lng":35.217778}},"location":{"lat":33.088834,"lng":35.228839},"location_type":"APPROXIMATE","viewport":{"northeast":{"lat":33.0957351,"lng":35.23255109999999},"southwest":{"lat":33.0819909,"lng":35.217778}}},"types":["locality","political"]}]},"61":{"id":61,"name":"אבן מנחם","areaId":"16","geodata":[{"address_components":[{"long_name":"Even Menachem","short_name":"Even Menachem","types":["locality","political"]},{"long_name":"Israel","short_name":"IL","types":["country","political"]}],"formatted_address":"Even Menachem, Israel","geometry":{"bounds":{"northeast":{"lat":33.0769619,"lng":35.298858},"southwest":{"lat":33.071707,"lng":35.2889979}},"location":{"lat":33.075143,"lng":35.295219},"location_type":"APPROXIMATE","viewport":{"northeast":{"lat":33.0769619,"lng":35.298858},"southwest":{"lat":33.071707,"lng":35.2889979}}},"types":["locality","political"]}]},"62":{"id":62,"name":"זרעית","areaId":"16","geodata":[{"address_components":[{"long_name":"Zar'it","short_name":"Zar'it","types":["locality","political"]},{"long_name":"Israel","short_name":"IL","types":["country","political"]}],"formatted_address":"Zar'it, Israel","geometry":{"bounds":{"northeast":{"lat":33.103132,"lng":35.293752},"southwest":{"lat":33.0974051,"lng":35.2835171}},"location":{"lat":33.09898500000001,"lng":35.288522},"location_type":"APPROXIMATE","viewport":{"northeast":{"lat":33.103132,"lng":35.293752},"southwest":{"lat":33.0974051,"lng":35.2835171}}},"types":["locality","political"]}]},"63":{"id":63,"name":"שומרה","areaId":"16","geodata":[{"address_components":[{"long_name":"Shomera","short_name":"Shomera","types":["locality","political"]},{"long_name":"Israel","short_name":"IL","types":["country","political"]}],"formatted_address":"Shomera, Israel","geometry":{"bounds":{"northeast":{"lat":33.091702,"lng":35.2925949},"southwest":{"lat":33.0790929,"lng":35.2778931}},"location":{"lat":33.08247,"lng":35.28196200000001},"location_type":"APPROXIMATE","viewport":{"northeast":{"lat":33.091702,"lng":35.2925949},"southwest":{"lat":33.0790929,"lng":35.2778931}}},"types":["locality","political"]}]},"64":{"id":64,"name":"שתולה","areaId":"16","geodata":[{"address_components":[{"long_name":"Shtula","short_name":"Shtula","types":["locality","political"]},{"long_name":"Israel","short_name":"IL","types":["country","political"]}],"formatted_address":"Shtula, Israel","geometry":{"bounds":{"northeast":{"lat":33.089079,"lng":35.321565},"southwest":{"lat":33.082266,"lng":35.3086011}},"location":{"lat":33.085919,"lng":35.315627},"location_type":"APPROXIMATE","viewport":{"northeast":{"lat":33.089079,"lng":35.321565},"southwest":{"lat":33.082266,"lng":35.3086011}}},"types":["locality","political"]}]},"65":{"id":65,"name":"אבירים","areaId":"17","geodata":[{"address_components":[{"long_name":"Abirim","short_name":"Abirim","types":["locality","political"]},{"long_name":"Israel","short_name":"IL","types":["country","political"]}],"formatted_address":"Abirim, Israel","geometry":{"bounds":{"northeast":{"lat":33.040845,"lng":35.289811},"southwest":{"lat":33.035904,"lng":35.284044}},"location":{"lat":33.038086,"lng":35.286044},"location_type":"APPROXIMATE","viewport":{"northeast":{"lat":33.040845,"lng":35.289811},"southwest":{"lat":33.035904,"lng":35.284044}}},"types":["locality","political"]}]},"66":{"id":66,"name":"אלקוש","areaId":"17","geodata":[{"address_components":[{"long_name":"Elkosh","short_name":"Elkosh","types":["locality","political"]},{"long_name":"Israel","short_name":"IL","types":["country","political"]}],"formatted_address":"Elkosh, Israel","geometry":{"bounds":{"northeast":{"lat":33.0370231,"lng":35.330174},"southwest":{"lat":33.030073,"lng":35.3176589}},"location":{"lat":33.034294,"lng":35.326348},"location_type":"APPROXIMATE","viewport":{"northeast":{"lat":33.0370231,"lng":35.330174},"southwest":{"lat":33.030073,"lng":35.3176589}}},"types":["locality","political"]}]},"67":{"id":67,"name":"נטועה","areaId":"17","geodata":[{"address_components":[{"long_name":"Netu'a","short_name":"Netu'a","types":["locality","political"]},{"long_name":"Israel","short_name":"IL","types":["country","political"]}],"formatted_address":"Netu'a, Israel","geometry":{"bounds":{"northeast":{"lat":33.06844100000001,"lng":35.3273679},"southwest":{"lat":33.061502,"lng":35.318619}},"location":{"lat":33.065387,"lng":35.323406},"location_type":"APPROXIMATE","viewport":{"northeast":{"lat":33.06844100000001,"lng":35.3273679},"southwest":{"lat":33.061502,"lng":35.318619}}},"types":["locality","political"]}]},"68":{"id":68,"name":"פסוטה","areaId":"17","geodata":[{"address_components":[{"long_name":"Fassuta","short_name":"Fassuta","types":["locality","political"]},{"long_name":"Israel","short_name":"IL","types":["country","political"]}],"formatted_address":"Fassuta, Israel","geometry":{"bounds":{"northeast":{"lat":33.06945,"lng":35.331397},"southwest":{"lat":33.0360641,"lng":35.28209}},"location":{"lat":33.04782,"lng":35.308827},"location_type":"APPROXIMATE","viewport":{"northeast":{"lat":33.06945,"lng":35.331397},"southwest":{"lat":33.0360641,"lng":35.28209}}},"types":["locality","political"]}]},"69":{"id":69,"name":"דוב''ב","areaId":"19","geodata":[{"address_components":[{"long_name":"Dovev","short_name":"Dovev","types":["locality","political"]},{"long_name":"Israel","short_name":"IL","types":["country","political"]}],"formatted_address":"Dovev, Israel","geometry":{"bounds":{"northeast":{"lat":33.056634,"lng":35.413676},"southwest":{"lat":33.047135,"lng":35.39853799999999}},"location":{"lat":33.0508,"lng":35.407747},"location_type":"APPROXIMATE","viewport":{"northeast":{"lat":33.056634,"lng":35.413676},"southwest":{"lat":33.047135,"lng":35.39853799999999}}},"partial_match":true,"types":["locality","political"]}]},"70":{"id":70,"name":"מתת","areaId":"19","geodata":[{"address_components":[{"long_name":"Mattat","short_name":"Mattat","types":["locality","political"]},{"long_name":"Israel","short_name":"IL","types":["country","political"]}],"formatted_address":"Mattat, Israel","geometry":{"bounds":{"northeast":{"lat":33.043585,"lng":35.3616449},"southwest":{"lat":33.03716000000001,"lng":35.353675}},"location":{"lat":33.041684,"lng":35.35669499999999},"location_type":"APPROXIMATE","viewport":{"northeast":{"lat":33.043585,"lng":35.3616449},"southwest":{"lat":33.03716000000001,"lng":35.353675}}},"types":["locality","political"]}]},"71":{"id":71,"name":"סאסא","areaId":"19","geodata":[{"address_components":[{"long_name":"Sasa, Israel","short_name":"Sasa, Israel","types":["locality","political"]},{"long_name":"Israel","short_name":"IL","types":["country","political"]}],"formatted_address":"Sasa, Israel, Israel","geometry":{"bounds":{"northeast":{"lat":33.031415,"lng":35.3998991},"southwest":{"lat":33.0239149,"lng":35.388926}},"location":{"lat":33.02866,"lng":35.394569},"location_type":"APPROXIMATE","viewport":{"northeast":{"lat":33.031415,"lng":35.3998991},"southwest":{"lat":33.0239149,"lng":35.388926}}},"types":["locality","political"]}]},"72":{"id":72,"name":"חורפיש","areaId":"20","geodata":[{"address_components":[{"long_name":"Hurfeish","short_name":"Hurfeish","types":["locality","political"]},{"long_name":"Israel","short_name":"IL","types":["country","political"]}],"formatted_address":"Hurfeish, Israel","geometry":{"bounds":{"northeast":{"lat":33.035702,"lng":35.3602749},"southwest":{"lat":33.010267,"lng":35.330042}},"location":{"lat":33.016688,"lng":35.347106},"location_type":"APPROXIMATE","viewport":{"northeast":{"lat":33.035702,"lng":35.3602749},"southwest":{"lat":33.010267,"lng":35.330042}}},"types":["locality","political"]}]},"73":{"id":73,"name":"פקיעין","areaId":"20","geodata":[{"address_components":[{"long_name":"Peki'in","short_name":"Peki'in","types":["locality","political"]},{"long_name":"Israel","short_name":"IL","types":["country","political"]}],"formatted_address":"Peki'in, Israel","geometry":{"bounds":{"northeast":{"lat":32.99548,"lng":35.344924},"southwest":{"lat":32.958066,"lng":35.302924}},"location":{"lat":32.976209,"lng":35.335794},"location_type":"APPROXIMATE","viewport":{"northeast":{"lat":32.99548,"lng":35.344924},"southwest":{"lat":32.958066,"lng":35.302924}}},"types":["locality","political"]}]},"74":{"id":74,"name":"פקיעין חדשה","areaId":"20","geodata":[{"address_components":[{"long_name":"Peki'in HaHadasha","short_name":"Peki'in HaHadasha","types":["locality","political"]},{"long_name":"Israel","short_name":"IL","types":["country","political"]}],"formatted_address":"Peki'in HaHadasha, Israel","geometry":{"bounds":{"northeast":{"lat":32.9888419,"lng":35.3272211},"southwest":{"lat":32.97938790000001,"lng":35.3161339}},"location":{"lat":32.982195,"lng":35.323408},"location_type":"APPROXIMATE","viewport":{"northeast":{"lat":32.9888419,"lng":35.3272211},"southwest":{"lat":32.97938790000001,"lng":35.3161339}}},"types":["locality","political"]}]},"75":{"id":75,"name":"צבעון","areaId":"20","geodata":[{"address_components":[{"long_name":"Tziv'on","short_name":"Tziv'on","types":["locality","political"]},{"long_name":"Israel","short_name":"IL","types":["country","political"]}],"formatted_address":"Tziv'on, Israel","geometry":{"bounds":{"northeast":{"lat":33.0304501,"lng":35.422268},"southwest":{"lat":33.0234789,"lng":35.4125721}},"location":{"lat":33.026363,"lng":35.416723},"location_type":"APPROXIMATE","viewport":{"northeast":{"lat":33.0304501,"lng":35.422268},"southwest":{"lat":33.0234789,"lng":35.4125721}}},"types":["locality","political"]}]},"76":{"id":76,"name":"צוריאל","areaId":"20","geodata":[{"address_components":[{"long_name":"Tzuriel","short_name":"Tzuriel","types":["locality","political"]},{"long_name":"Israel","short_name":"IL","types":["country","political"]}],"formatted_address":"Tzuriel, Israel","geometry":{"bounds":{"northeast":{"lat":33.0102911,"lng":35.321724},"southwest":{"lat":33.0039819,"lng":35.307488}},"location":{"lat":33.006488,"lng":35.31479},"location_type":"APPROXIMATE","viewport":{"northeast":{"lat":33.0102911,"lng":35.321724},"southwest":{"lat":33.0039819,"lng":35.307488}}},"types":["locality","political"]}]},"77":{"id":77,"name":"אביבים","areaId":"22","geodata":[{"address_components":[{"long_name":"Avivim","short_name":"Avivim","types":["locality","political"]},{"long_name":"Israel","short_name":"IL","types":["country","political"]}],"formatted_address":"Avivim, Israel","geometry":{"bounds":{"northeast":{"lat":33.0920571,"lng":35.47819},"southwest":{"lat":33.084022,"lng":35.4658649}},"location":{"lat":33.089381,"lng":35.470338},"location_type":"APPROXIMATE","viewport":{"northeast":{"lat":33.0920571,"lng":35.47819},"southwest":{"lat":33.084022,"lng":35.4658649}}},"types":["locality","political"]}]},"78":{"id":78,"name":"ברעם","areaId":"22","geodata":[{"address_components":[{"long_name":"Bar'am","short_name":"Bar'am","types":["locality","political"]},{"long_name":"Israel","short_name":"IL","types":["country","political"]}],"formatted_address":"Bar'am, Israel","geometry":{"bounds":{"northeast":{"lat":33.061643,"lng":35.441997},"southwest":{"lat":33.054251,"lng":35.429926}},"location":{"lat":33.058979,"lng":35.433235},"location_type":"APPROXIMATE","viewport":{"northeast":{"lat":33.061643,"lng":35.441997},"southwest":{"lat":33.054251,"lng":35.429926}}},"types":["locality","political"]}]},"79":{"id":79,"name":"יראון","areaId":"22","geodata":[{"address_components":[{"long_name":"Yir'on","short_name":"Yir'on","types":["locality","political"]},{"long_name":"Israel","short_name":"IL","types":["country","political"]}],"formatted_address":"Yir'on, Israel","geometry":{"bounds":{"northeast":{"lat":33.080479,"lng":35.4599211},"southwest":{"lat":33.072452,"lng":35.4497189}},"location":{"lat":33.077239,"lng":35.454291},"location_type":"APPROXIMATE","viewport":{"northeast":{"lat":33.080479,"lng":35.4599211},"southwest":{"lat":33.072452,"lng":35.4497189}}},"types":["locality","political"]}]},"80":{"id":80,"name":"ג'יש","areaId":"23","geodata":[{"address_components":[{"long_name":"Jish","short_name":"Jish","types":["locality","political"]},{"long_name":"Israel","short_name":"IL","types":["country","political"]}],"formatted_address":"Jish, Israel","geometry":{"bounds":{"northeast":{"lat":33.040975,"lng":35.45566},"southwest":{"lat":33.005209,"lng":35.406582}},"location":{"lat":33.021266,"lng":35.447949},"location_type":"APPROXIMATE","viewport":{"northeast":{"lat":33.040975,"lng":35.45566},"southwest":{"lat":33.005209,"lng":35.406582}}},"types":["locality","political"]}]},"81":{"id":81,"name":"דלתון","areaId":"23","geodata":[{"address_components":[{"long_name":"Dalton, Israel","short_name":"Dalton, Israel","types":["locality","political"]},{"long_name":"Israel","short_name":"IL","types":["country","political"]}],"formatted_address":"Dalton, Israel, Israel","geometry":{"bounds":{"northeast":{"lat":33.0213389,"lng":35.498812},"southwest":{"lat":33.0119231,"lng":35.479761}},"location":{"lat":33.016553,"lng":35.489911},"location_type":"APPROXIMATE","viewport":{"northeast":{"lat":33.0213389,"lng":35.498812},"southwest":{"lat":33.0119231,"lng":35.479761}}},"types":["locality","political"]}]},"82":{"id":82,"name":"כרם בן זמרה","areaId":"23","geodata":[{"address_components":[{"long_name":"Kerem Ben Zimra","short_name":"Kerem Ben Zimra","types":["locality","political"]},{"long_name":"Israel","short_name":"IL","types":["country","political"]}],"formatted_address":"Kerem Ben Zimra, Israel","geometry":{"bounds":{"northeast":{"lat":33.04232,"lng":35.4749119},"southwest":{"lat":33.0327111,"lng":35.457917}},"location":{"lat":33.039224,"lng":35.46988899999999},"location_type":"APPROXIMATE","viewport":{"northeast":{"lat":33.04232,"lng":35.4749119},"southwest":{"lat":33.0327111,"lng":35.457917}}},"types":["locality","political"]}]},"83":{"id":83,"name":"עלמה","areaId":"23","geodata":[{"address_components":[{"long_name":"Alma, Israel","short_name":"Alma, Israel","types":["locality","political"]},{"long_name":"Israel","short_name":"IL","types":["country","political"]}],"formatted_address":"Alma, Israel, Israel","geometry":{"bounds":{"northeast":{"lat":33.056673,"lng":35.507402},"southwest":{"lat":33.0439999,"lng":35.4915299}},"location":{"lat":33.05186,"lng":35.499636},"location_type":"APPROXIMATE","viewport":{"northeast":{"lat":33.056673,"lng":35.507402},"southwest":{"lat":33.0439999,"lng":35.4915299}}},"types":["locality","political"]}]},"84":{"id":84,"name":"ריחאנייה","areaId":"23","geodata":[{"address_components":[{"long_name":"Rehaniya","short_name":"Rehaniya","types":["locality","political"]},{"long_name":"Israel","short_name":"IL","types":["country","political"]}],"formatted_address":"Rehaniya, Israel","geometry":{"bounds":{"northeast":{"lat":33.054269,"lng":35.491835},"southwest":{"lat":33.045656,"lng":35.4821161}},"location":{"lat":33.049922,"lng":35.487062},"location_type":"APPROXIMATE","viewport":{"northeast":{"lat":33.054269,"lng":35.491835},"southwest":{"lat":33.045656,"lng":35.4821161}}},"types":["locality","political"]}]},"85":{"id":85,"name":"דישון","areaId":"24","geodata":[{"address_components":[{"long_name":"Dishon","short_name":"Dishon","types":["locality","political"]},{"long_name":"Israel","short_name":"IL","types":["country","political"]}],"formatted_address":"Dishon, Israel","geometry":{"bounds":{"northeast":{"lat":33.0878461,"lng":35.52549},"southwest":{"lat":33.077128,"lng":35.5125749}},"location":{"lat":33.082318,"lng":35.517572},"location_type":"APPROXIMATE","viewport":{"northeast":{"lat":33.0878461,"lng":35.52549},"southwest":{"lat":33.077128,"lng":35.5125749}}},"types":["locality","political"]}]},"86":{"id":86,"name":"יפתח","areaId":"24","geodata":[{"address_components":[{"long_name":"Yiftah","short_name":"Yiftah","types":["locality","political"]},{"long_name":"Israel","short_name":"IL","types":["country","political"]}],"formatted_address":"Yiftah, Israel","geometry":{"bounds":{"northeast":{"lat":33.1320131,"lng":35.5553311},"southwest":{"lat":33.123558,"lng":35.5443531}},"location":{"lat":33.128346,"lng":35.55202999999999},"location_type":"APPROXIMATE","viewport":{"northeast":{"lat":33.1320131,"lng":35.5553311},"southwest":{"lat":33.123558,"lng":35.5443531}}},"types":["locality","political"]}]},"87":{"id":87,"name":"מלכיה","areaId":"24","geodata":[{"address_components":[{"long_name":"Malkia","short_name":"Malkia","types":["locality","political"]},{"long_name":"Israel","short_name":"IL","types":["country","political"]}],"formatted_address":"Malkia, Israel","geometry":{"bounds":{"northeast":{"lat":33.102979,"lng":35.5150801},"southwest":{"lat":33.092573,"lng":35.505614}},"location":{"lat":33.098589,"lng":35.509624},"location_type":"APPROXIMATE","viewport":{"northeast":{"lat":33.102979,"lng":35.5150801},"southwest":{"lat":33.092573,"lng":35.505614}}},"types":["locality","political"]}]},"88":{"id":88,"name":"מרכז כ''ח","areaId":"24","geodata":[{"address_components":[{"long_name":"גבעת כ''ח","short_name":"גבעת כ''ח","types":["bus_station","transit_station","establishment"]},{"long_name":"Israel","short_name":"IL","types":["country","political"]}],"formatted_address":"גבעת כ''ח","geometry":{"location":{"lat":32.018337,"lng":34.938495},"location_type":"APPROXIMATE","viewport":{"northeast":{"lat":32.01968598029149,"lng":34.9398439802915},"southwest":{"lat":32.0169880197085,"lng":34.9371460197085}}},"partial_match":true,"types":["bus_station","transit_station","establishment"]},{"address_components":[{"long_name":"צומת כ''ח","short_name":"צומת כ''ח","types":["bus_station","transit_station","establishment"]},{"long_name":"Israel","short_name":"IL","types":["country","political"]}],"formatted_address":"צומת כ''ח","geometry":{"location":{"lat":33.126374,"lng":35.571235},"location_type":"APPROXIMATE","viewport":{"northeast":{"lat":33.1277229802915,"lng":35.5725839802915},"southwest":{"lat":33.1250250197085,"lng":35.5698860197085}}},"partial_match":true,"types":["bus_station","transit_station","establishment"]}]},"89":{"id":89,"name":"רמות נפתלי","areaId":"24","geodata":[{"address_components":[{"long_name":"Ramot Naftali","short_name":"Ramot Naftali","types":["locality","political"]},{"long_name":"Israel","short_name":"IL","types":["country","political"]}],"formatted_address":"Ramot Naftali, Israel","geometry":{"bounds":{"northeast":{"lat":33.1129311,"lng":35.556979},"southwest":{"lat":33.095747,"lng":35.5490821}},"location":{"lat":33.102354,"lng":35.553313},"location_type":"APPROXIMATE","viewport":{"northeast":{"lat":33.1129311,"lng":35.556979},"southwest":{"lat":33.095747,"lng":35.5490821}}},"types":["locality","political"]}]},"90":{"id":90,"name":"גונן","areaId":"25","geodata":[{"address_components":[{"long_name":"Gonen","short_name":"Gonen","types":["locality","political"]},{"long_name":"Israel","short_name":"IL","types":["country","political"]}],"formatted_address":"Gonen, Israel","geometry":{"bounds":{"northeast":{"lat":33.1299071,"lng":35.6498001},"southwest":{"lat":33.118487,"lng":35.6416021}},"location":{"lat":33.1240353,"lng":35.6461519},"location_type":"APPROXIMATE","viewport":{"northeast":{"lat":33.1299071,"lng":35.6498001},"southwest":{"lat":33.118487,"lng":35.6416021}}},"types":["locality","political"]}]},"91":{"id":91,"name":"כפר בלום","areaId":"25","geodata":[{"address_components":[{"long_name":"Kfar Blum","short_name":"Kfar Blum","types":["locality","political"]},{"long_name":"Israel","short_name":"IL","types":["country","political"]}],"formatted_address":"Kfar Blum, Israel","geometry":{"bounds":{"northeast":{"lat":33.17814,"lng":35.616139},"southwest":{"lat":33.166516,"lng":35.5970659}},"location":{"lat":33.172527,"lng":35.607938},"location_type":"APPROXIMATE","viewport":{"northeast":{"lat":33.17814,"lng":35.616139},"southwest":{"lat":33.166516,"lng":35.5970659}}},"types":["locality","political"]}]},"92":{"id":92,"name":"כפר סאלד","areaId":"25","geodata":[{"address_components":[{"long_name":"Kfar Szold","short_name":"Kfar Szold","types":["locality","political"]},{"long_name":"Israel","short_name":"IL","types":["country","political"]}],"formatted_address":"Kfar Szold, Israel","geometry":{"bounds":{"northeast":{"lat":33.200208,"lng":35.662178},"southwest":{"lat":33.189951,"lng":35.6526799}},"location":{"lat":33.196035,"lng":35.657993},"location_type":"APPROXIMATE","viewport":{"northeast":{"lat":33.200208,"lng":35.662178},"southwest":{"lat":33.189951,"lng":35.6526799}}},"types":["locality","political"]}]},"93":{"id":93,"name":"להבות הבשן","areaId":"25","geodata":[{"address_components":[{"long_name":"Lehavot HaBashan","short_name":"Lehavot HaBashan","types":["locality","political"]},{"long_name":"Israel","short_name":"IL","types":["country","political"]}],"formatted_address":"Lehavot HaBashan, Israel","geometry":{"bounds":{"northeast":{"lat":33.1456671,"lng":35.6538911},"southwest":{"lat":33.135431,"lng":35.642629}},"location":{"lat":33.1412178,"lng":35.6478714},"location_type":"APPROXIMATE","viewport":{"northeast":{"lat":33.1456671,"lng":35.6538911},"southwest":{"lat":33.135431,"lng":35.642629}}},"types":["locality","political"]}]},"94":{"id":94,"name":"נאות מרדכי","areaId":"25","geodata":[{"address_components":[{"long_name":"Neot Mordechai","short_name":"Neot Mordechai","types":["locality","political"]},{"long_name":"Israel","short_name":"IL","types":["country","political"]}],"formatted_address":"Neot Mordechai, Israel","geometry":{"bounds":{"northeast":{"lat":33.1635481,"lng":35.604213},"southwest":{"lat":33.155292,"lng":35.590805}},"location":{"lat":33.159785,"lng":35.595602},"location_type":"APPROXIMATE","viewport":{"northeast":{"lat":33.1635481,"lng":35.604213},"southwest":{"lat":33.155292,"lng":35.590805}}},"types":["locality","political"]}]},"95":{"id":95,"name":"עמיר","areaId":"25","geodata":[{"address_components":[{"long_name":"Amir, Israel","short_name":"Amir, Israel","types":["locality","political"]},{"long_name":"Israel","short_name":"IL","types":["country","political"]}],"formatted_address":"Amir, Israel, Israel","geometry":{"bounds":{"northeast":{"lat":33.182563,"lng":35.62625},"southwest":{"lat":33.1732171,"lng":35.6152619}},"location":{"lat":33.17772610000001,"lng":35.6198305},"location_type":"APPROXIMATE","viewport":{"northeast":{"lat":33.182563,"lng":35.62625},"southwest":{"lat":33.1732171,"lng":35.6152619}}},"types":["locality","political"]}]},"96":{"id":96,"name":"שדה נחמיה","areaId":"25","geodata":[{"address_components":[{"long_name":"Sde Nehemia","short_name":"Sde Nehemia","types":["locality","political"]},{"long_name":"Israel","short_name":"IL","types":["country","political"]}],"formatted_address":"Sde Nehemia, Israel","geometry":{"bounds":{"northeast":{"lat":33.193342,"lng":35.630363},"southwest":{"lat":33.1832271,"lng":35.618815}},"location":{"lat":33.188234,"lng":35.62307},"location_type":"APPROXIMATE","viewport":{"northeast":{"lat":33.193342,"lng":35.630363},"southwest":{"lat":33.1832271,"lng":35.618815}}},"types":["locality","political"]}]},"97":{"id":97,"name":"שמיר","areaId":"25","geodata":[{"address_components":[{"long_name":"Shamir, Israel","short_name":"Shamir, Israel","types":["locality","political"]},{"long_name":"Israel","short_name":"IL","types":["country","political"]}],"formatted_address":"Shamir, Israel, Israel","geometry":{"bounds":{"northeast":{"lat":33.17230990000001,"lng":35.664947},"southwest":{"lat":33.160106,"lng":35.65653289999999}},"location":{"lat":33.166754,"lng":35.659949},"location_type":"APPROXIMATE","viewport":{"northeast":{"lat":33.17230990000001,"lng":35.664947},"southwest":{"lat":33.160106,"lng":35.65653289999999}}},"types":["locality","political"]}]},"98":{"id":98,"name":"בית הלל","areaId":"26","geodata":[{"address_components":[{"long_name":"Beit Hillel","short_name":"Beit Hillel","types":["locality","political"]},{"long_name":"Israel","short_name":"IL","types":["country","political"]}],"formatted_address":"Beit Hillel, Israel","geometry":{"bounds":{"northeast":{"lat":33.225495,"lng":35.615216},"southwest":{"lat":33.1925541,"lng":35.592325}},"location":{"lat":33.208782,"lng":35.606515},"location_type":"APPROXIMATE","viewport":{"northeast":{"lat":33.225495,"lng":35.615216},"southwest":{"lat":33.1925541,"lng":35.592325}}},"types":["locality","political"]}]},"99":{"id":99,"name":"יובל","areaId":"26","geodata":[{"address_components":[{"long_name":"Yuval","short_name":"Yuval","types":["locality","political"]},{"long_name":"Israel","short_name":"IL","types":["country","political"]}],"formatted_address":"Yuval, Israel","geometry":{"bounds":{"northeast":{"lat":33.25927,"lng":35.610584},"southwest":{"lat":33.227329,"lng":35.587361}},"location":{"lat":33.246577,"lng":35.597063},"location_type":"APPROXIMATE","viewport":{"northeast":{"lat":33.25927,"lng":35.610584},"southwest":{"lat":33.227329,"lng":35.587361}}},"types":["locality","political"]}]},"100":{"id":100,"name":"כפר גלעדי","areaId":"26","geodata":[{"address_components":[{"long_name":"Kfar Giladi","short_name":"Kfar Giladi","types":["locality","political"]},{"long_name":"Israel","short_name":"IL","types":["country","political"]}],"formatted_address":"Kfar Giladi, Israel","geometry":{"bounds":{"northeast":{"lat":33.247076,"lng":35.5805751},"southwest":{"lat":33.2372801,"lng":35.57033}},"location":{"lat":33.242078,"lng":35.574142},"location_type":"APPROXIMATE","viewport":{"northeast":{"lat":33.247076,"lng":35.5805751},"southwest":{"lat":33.2372801,"lng":35.57033}}},"types":["locality","political"]}]},"101":{"id":101,"name":"מטולה","areaId":"26","geodata":[{"address_components":[{"long_name":"Metula","short_name":"Metula","types":["locality","political"]},{"long_name":"Israel","short_name":"IL","types":["country","political"]}],"formatted_address":"Metula, Israel","geometry":{"bounds":{"northeast":{"lat":33.2908349,"lng":35.5959963},"southwest":{"lat":33.2476911,"lng":35.5561868}},"location":{"lat":33.277232,"lng":35.578235},"location_type":"APPROXIMATE","viewport":{"northeast":{"lat":33.2908349,"lng":35.5959963},"southwest":{"lat":33.2476911,"lng":35.5561868}}},"types":["locality","political"]}]},"102":{"id":102,"name":"מנרה","areaId":"26","geodata":[{"address_components":[{"long_name":"Menara, Israel","short_name":"Menara, Israel","types":["locality","political"]},{"long_name":"Israel","short_name":"IL","types":["country","political"]}],"formatted_address":"Menara, Israel, Israel","geometry":{"bounds":{"northeast":{"lat":33.201769,"lng":35.550428},"southwest":{"lat":33.1929119,"lng":35.542087}},"location":{"lat":33.195375,"lng":35.543728},"location_type":"APPROXIMATE","viewport":{"northeast":{"lat":33.201769,"lng":35.550428},"southwest":{"lat":33.1929119,"lng":35.542087}}},"types":["locality","political"]}]},"103":{"id":103,"name":"מעיין ברוך","areaId":"26","geodata":[{"address_components":[{"long_name":"Ma'ayan Baruch","short_name":"Ma'ayan Baruch","types":["locality","political"]},{"long_name":"Israel","short_name":"IL","types":["country","political"]}],"formatted_address":"Ma'ayan Baruch, Israel","geometry":{"bounds":{"northeast":{"lat":33.244632,"lng":35.612966},"southwest":{"lat":33.236334,"lng":35.601781}},"location":{"lat":33.239349,"lng":35.609359},"location_type":"APPROXIMATE","viewport":{"northeast":{"lat":33.244632,"lng":35.612966},"southwest":{"lat":33.236334,"lng":35.601781}}},"types":["locality","political"]}]},"104":{"id":104,"name":"מרגליות","areaId":"26","geodata":[{"address_components":[{"long_name":"Margaliot","short_name":"Margaliot","types":["locality","political"]},{"long_name":"Israel","short_name":"IL","types":["country","political"]}],"formatted_address":"Margaliot, Israel","geometry":{"bounds":{"northeast":{"lat":33.221892,"lng":35.551356},"southwest":{"lat":33.2083759,"lng":35.539415}},"location":{"lat":33.216474,"lng":35.544354},"location_type":"APPROXIMATE","viewport":{"northeast":{"lat":33.221892,"lng":35.551356},"southwest":{"lat":33.2083759,"lng":35.539415}}},"types":["locality","political"]}]},"105":{"id":105,"name":"משגב עם","areaId":"26","geodata":[{"address_components":[{"long_name":"Misgav Am","short_name":"Misgav Am","types":["locality","political"]},{"long_name":"Israel","short_name":"IL","types":["country","political"]}],"formatted_address":"Misgav Am, Israel","geometry":{"bounds":{"northeast":{"lat":33.250525,"lng":35.5523159},"southwest":{"lat":33.244083,"lng":35.54653}},"location":{"lat":33.247572,"lng":35.548499},"location_type":"APPROXIMATE","viewport":{"northeast":{"lat":33.250525,"lng":35.5523159},"southwest":{"lat":33.244083,"lng":35.54653}}},"types":["locality","political"]}]},"106":{"id":106,"name":"קרית שמונה","areaId":"26","geodata":[{"address_components":[{"long_name":"Qiryat Shemona","short_name":"ק\"ש","types":["locality","political"]},{"long_name":"Israel","short_name":"IL","types":["country","political"]}],"formatted_address":"Kiryat Shmona, Israel","geometry":{"bounds":{"northeast":{"lat":33.23238000000001,"lng":35.6030119},"southwest":{"lat":33.1903449,"lng":35.549506}},"location":{"lat":33.207933,"lng":35.570246},"location_type":"APPROXIMATE","viewport":{"northeast":{"lat":33.23238000000001,"lng":35.6030119},"southwest":{"lat":33.1903449,"lng":35.549506}}},"types":["locality","political"]}]},"107":{"id":107,"name":"תל חי","areaId":"26","geodata":[{"address_components":[{"long_name":"Tel-Hai Academic College","short_name":"Tel-Hai Academic College","types":["establishment"]},{"long_name":"Qiryat Shemona","short_name":"ק\"ש","types":["locality","political"]},{"long_name":"Israel","short_name":"IL","types":["country","political"]},{"long_name":"12208","short_name":"12208","types":["postal_code"]}],"formatted_address":"Tel-Hai Academic College, Kiryat Shmona, 12208, Israel","geometry":{"bounds":{"northeast":{"lat":33.2377243,"lng":35.5799175},"southwest":{"lat":33.2222196,"lng":35.5719403}},"location":{"lat":33.2359412,"lng":35.5781443},"location_type":"APPROXIMATE","viewport":{"northeast":{"lat":33.2377243,"lng":35.5799175},"southwest":{"lat":33.234452,"lng":35.5768306}}},"types":["university","establishment"]}]},"108":{"id":108,"name":"דן","areaId":"28","geodata":[{"address_components":[{"long_name":"Dan","short_name":"Dan","types":["locality","political"]},{"long_name":"Israel","short_name":"IL","types":["country","political"]}],"formatted_address":"Dan, Israel, Israel","geometry":{"bounds":{"northeast":{"lat":33.243972,"lng":35.6587111},"southwest":{"lat":33.235616,"lng":35.6494321}},"location":{"lat":33.239637,"lng":35.653953},"location_type":"APPROXIMATE","viewport":{"northeast":{"lat":33.243972,"lng":35.6587111},"southwest":{"lat":33.235616,"lng":35.6494321}}},"types":["locality","political"]}]},"109":{"id":109,"name":"דפנה","areaId":"28","geodata":[{"address_components":[{"long_name":"Dafna","short_name":"Dafna","types":["locality","political"]},{"long_name":"Israel","short_name":"IL","types":["country","political"]}],"formatted_address":"Dafna, Israel","geometry":{"bounds":{"northeast":{"lat":33.234753,"lng":35.6435691},"southwest":{"lat":33.225312,"lng":35.633629}},"location":{"lat":33.23075,"lng":35.638268},"location_type":"APPROXIMATE","viewport":{"northeast":{"lat":33.234753,"lng":35.6435691},"southwest":{"lat":33.225312,"lng":35.633629}}},"types":["locality","political"]}]},"110":{"id":110,"name":"הגושרים","areaId":"28","geodata":[{"address_components":[{"long_name":"HaGoshrim","short_name":"HaGoshrim","types":["locality","political"]},{"long_name":"Israel","short_name":"IL","types":["country","political"]}],"formatted_address":"HaGoshrim, Israel","geometry":{"bounds":{"northeast":{"lat":33.2246419,"lng":35.6288881},"southwest":{"lat":33.2157,"lng":35.6172271}},"location":{"lat":33.221485,"lng":35.623028},"location_type":"APPROXIMATE","viewport":{"northeast":{"lat":33.2246419,"lng":35.6288881},"southwest":{"lat":33.2157,"lng":35.6172271}}},"types":["locality","political"]}]},"111":{"id":111,"name":"ע'ג'ר","areaId":"28","geodata":[{"address_components":[{"long_name":"Ghajar","short_name":"Ghajar","types":["locality","political"]}],"formatted_address":"Ghajar","geometry":{"bounds":{"northeast":{"lat":33.278083,"lng":35.642023},"southwest":{"lat":33.261159,"lng":35.620825}},"location":{"lat":33.272607,"lng":35.623637},"location_type":"APPROXIMATE","viewport":{"northeast":{"lat":33.278083,"lng":35.642023},"southwest":{"lat":33.261159,"lng":35.620825}}},"types":["locality","political"]}]},"112":{"id":112,"name":"שאר ישוב","areaId":"28","geodata":[{"address_components":[{"long_name":"She'ar Yashuv","short_name":"She'ar Yashuv","types":["locality","political"]},{"long_name":"Israel","short_name":"IL","types":["country","political"]}],"formatted_address":"She'ar Yashuv, Israel","geometry":{"bounds":{"northeast":{"lat":33.232705,"lng":35.6655141},"southwest":{"lat":33.205187,"lng":35.638711}},"location":{"lat":33.22919,"lng":35.649254},"location_type":"APPROXIMATE","viewport":{"northeast":{"lat":33.232705,"lng":35.6655141},"southwest":{"lat":33.205187,"lng":35.638711}}},"types":["locality","political"]}]},"113":{"id":113,"name":"שניר","areaId":"28","geodata":[{"address_components":[{"long_name":"Snir","short_name":"Snir","types":["locality","political"]}],"formatted_address":"Snir","geometry":{"bounds":{"northeast":{"lat":33.247209,"lng":35.682365},"southwest":{"lat":33.236638,"lng":35.67415099999999}},"location":{"lat":33.240338,"lng":35.677015},"location_type":"APPROXIMATE","viewport":{"northeast":{"lat":33.247209,"lng":35.682365},"southwest":{"lat":33.236638,"lng":35.67415099999999}}},"types":["locality","political"]}]},"114":{"id":114,"name":"גשר הזיו","areaId":"29","geodata":[{"address_components":[{"long_name":"Gesher HaZiv","short_name":"Gesher HaZiv","types":["locality","political"]},{"long_name":"Israel","short_name":"IL","types":["country","political"]}],"formatted_address":"Gesher HaZiv, Israel","geometry":{"bounds":{"northeast":{"lat":33.044328,"lng":35.116326},"southwest":{"lat":33.0335189,"lng":35.106633}},"location":{"lat":33.040532,"lng":35.110563},"location_type":"APPROXIMATE","viewport":{"northeast":{"lat":33.044328,"lng":35.116326},"southwest":{"lat":33.0335189,"lng":35.106633}}},"types":["locality","political"]}]},"115":{"id":115,"name":"נהריה","areaId":"29","geodata":[{"address_components":[{"long_name":"Nahariyya","short_name":"Nahariyya","types":["locality","political"]},{"long_name":"Israel","short_name":"IL","types":["country","political"]}],"formatted_address":"Nahariya, Israel","geometry":{"bounds":{"northeast":{"lat":33.043572,"lng":35.1916791},"southwest":{"lat":32.987299,"lng":35.0819352}},"location":{"lat":33.0085361,"lng":35.0980514},"location_type":"APPROXIMATE","viewport":{"northeast":{"lat":33.043572,"lng":35.1199157},"southwest":{"lat":32.987299,"lng":35.0819352}}},"types":["locality","political"]}]},"116":{"id":116,"name":"סער","areaId":"29","geodata":[{"address_components":[{"long_name":"Sa'ar","short_name":"Sa'ar","types":["locality","political"]},{"long_name":"Israel","short_name":"IL","types":["country","political"]}],"formatted_address":"Sa'ar, Israel","geometry":{"bounds":{"northeast":{"lat":33.033275,"lng":35.115902},"southwest":{"lat":33.025416,"lng":35.104128}},"location":{"lat":33.028689,"lng":35.109232},"location_type":"APPROXIMATE","viewport":{"northeast":{"lat":33.033275,"lng":35.115902},"southwest":{"lat":33.025416,"lng":35.104128}}},"types":["locality","political"]}]},"117":{"id":117,"name":"עברון","areaId":"29","geodata":[{"address_components":[{"long_name":"Evron, Israel","short_name":"Evron, Israel","types":["locality","political"]},{"long_name":"Israel","short_name":"IL","types":["country","political"]}],"formatted_address":"Evron, Israel, Israel","geometry":{"bounds":{"northeast":{"lat":32.995282,"lng":35.1054041},"southwest":{"lat":32.987384,"lng":35.096217}},"location":{"lat":32.991149,"lng":35.100031},"location_type":"APPROXIMATE","viewport":{"northeast":{"lat":32.995282,"lng":35.1054041},"southwest":{"lat":32.987384,"lng":35.096217}}},"types":["locality","political"]}]},"118":{"id":118,"name":"שבי ציון","areaId":"29","geodata":[{"address_components":[{"long_name":"Shavei Tzion","short_name":"Shavei Tzion","types":["locality","political"]},{"long_name":"Israel","short_name":"IL","types":["country","political"]}],"formatted_address":"Shavei Tzion, Israel","geometry":{"bounds":{"northeast":{"lat":32.9883128,"lng":35.0968391},"southwest":{"lat":32.970214,"lng":35.0783227}},"location":{"lat":32.982079,"lng":35.083005},"location_type":"APPROXIMATE","viewport":{"northeast":{"lat":32.9883128,"lng":35.0968391},"southwest":{"lat":32.970214,"lng":35.0783227}}},"types":["locality","political"]}]},"119":{"id":119,"name":"בן עמי","areaId":"30","geodata":[{"address_components":[{"long_name":"Ben Ami","short_name":"Ben Ami","types":["locality","political"]},{"long_name":"Israel","short_name":"IL","types":["country","political"]}],"formatted_address":"Ben Ami, Israel","geometry":{"bounds":{"northeast":{"lat":33.013362,"lng":35.1392821},"southwest":{"lat":32.9997339,"lng":35.111709}},"location":{"lat":33.005369,"lng":35.122218},"location_type":"APPROXIMATE","viewport":{"northeast":{"lat":33.013362,"lng":35.1392821},"southwest":{"lat":32.9997339,"lng":35.111709}}},"types":["locality","political"]}]},"120":{"id":120,"name":"כברי","areaId":"30","geodata":[{"address_components":[{"long_name":"Kabri, Israel","short_name":"Kabri, Israel","types":["locality","political"]},{"long_name":"Israel","short_name":"IL","types":["country","political"]}],"formatted_address":"Kabri, Israel, Israel","geometry":{"bounds":{"northeast":{"lat":33.0252,"lng":35.155948},"southwest":{"lat":33.016878,"lng":35.1425261}},"location":{"lat":33.020985,"lng":35.147007},"location_type":"APPROXIMATE","viewport":{"northeast":{"lat":33.0252,"lng":35.155948},"southwest":{"lat":33.016878,"lng":35.1425261}}},"types":["locality","political"]}]},"121":{"id":121,"name":"געתון","areaId":"31","geodata":[{"address_components":[{"long_name":"Ga'aton","short_name":"Ga'aton","types":["locality","political"]},{"long_name":"Israel","short_name":"IL","types":["country","political"]}],"formatted_address":"Ga'aton, Israel","geometry":{"bounds":{"northeast":{"lat":33.008563,"lng":35.220888},"southwest":{"lat":33.003384,"lng":35.2089089}},"location":{"lat":33.006075,"lng":35.213831},"location_type":"APPROXIMATE","viewport":{"northeast":{"lat":33.008563,"lng":35.220888},"southwest":{"lat":33.003384,"lng":35.2089089}}},"types":["locality","political"]}]},"122":{"id":122,"name":"יחיעם","areaId":"31","geodata":[{"address_components":[{"long_name":"Yehiam","short_name":"Yehiam","types":["locality","political"]},{"long_name":"Israel","short_name":"IL","types":["country","political"]}],"formatted_address":"Yehiam, Israel","geometry":{"bounds":{"northeast":{"lat":33.001382,"lng":35.2267819},"southwest":{"lat":32.992633,"lng":35.213682}},"location":{"lat":32.996109,"lng":35.22109100000001},"location_type":"APPROXIMATE","viewport":{"northeast":{"lat":33.001382,"lng":35.2267819},"southwest":{"lat":32.992633,"lng":35.213682}}},"types":["locality","political"]}]},"123":{"id":123,"name":"מנות","areaId":"31","geodata":[{"address_components":[{"long_name":"Manot, Israel","short_name":"Manot, Israel","types":["locality","political"]},{"long_name":"Israel","short_name":"IL","types":["country","political"]}],"formatted_address":"Manot, Israel, Israel","geometry":{"bounds":{"northeast":{"lat":33.0414669,"lng":35.201241},"southwest":{"lat":33.035341,"lng":35.188007}},"location":{"lat":33.038709,"lng":35.195156},"location_type":"APPROXIMATE","viewport":{"northeast":{"lat":33.0414669,"lng":35.201241},"southwest":{"lat":33.035341,"lng":35.188007}}},"types":["locality","political"]}]},"124":{"id":124,"name":"נווה זיו","areaId":"31","geodata":[{"address_components":[{"long_name":"Neve Ziv","short_name":"Neve Ziv","types":["locality","political"]},{"long_name":"Israel","short_name":"IL","types":["country","political"]}],"formatted_address":"Neve Ziv, Israel","geometry":{"bounds":{"northeast":{"lat":33.029385,"lng":35.18972300000001},"southwest":{"lat":33.025119,"lng":35.179953}},"location":{"lat":33.027399,"lng":35.18433},"location_type":"APPROXIMATE","viewport":{"northeast":{"lat":33.029385,"lng":35.18972300000001},"southwest":{"lat":33.025119,"lng":35.179953}}},"types":["locality","political"]}]},"125":{"id":125,"name":"עבדון","areaId":"31","geodata":[{"address_components":[{"long_name":"Avdon","short_name":"Avdon","types":["locality","political"]},{"long_name":"Israel","short_name":"IL","types":["country","political"]}],"formatted_address":"Avdon, Israel","geometry":{"bounds":{"northeast":{"lat":33.0516131,"lng":35.1849561},"southwest":{"lat":33.044036,"lng":35.171573}},"location":{"lat":33.048792,"lng":35.179128},"location_type":"APPROXIMATE","viewport":{"northeast":{"lat":33.0516131,"lng":35.1849561},"southwest":{"lat":33.044036,"lng":35.171573}}},"types":["locality","political"]}]},"126":{"id":126,"name":"עין יעקב","areaId":"31","geodata":[{"address_components":[{"long_name":"Ein Ya'akov","short_name":"Ein Ya'akov","types":["locality","political"]},{"long_name":"Israel","short_name":"IL","types":["country","political"]}],"formatted_address":"Ein Ya'akov, Israel","geometry":{"bounds":{"northeast":{"lat":33.014003,"lng":35.235332},"southwest":{"lat":33.00647,"lng":35.2230519}},"location":{"lat":33.009312,"lng":35.229024},"location_type":"APPROXIMATE","viewport":{"northeast":{"lat":33.014003,"lng":35.235332},"southwest":{"lat":33.00647,"lng":35.2230519}}},"types":["locality","political"]}]},"127":{"id":127,"name":"הילה","areaId":"32","geodata":[{"address_components":[{"long_name":"Hila","short_name":"Hila","types":["locality","political"]},{"long_name":"Israel","short_name":"IL","types":["country","political"]}],"formatted_address":"Hila, Israel","geometry":{"bounds":{"northeast":{"lat":33.039238,"lng":35.249184},"southwest":{"lat":33.032696,"lng":35.239398}},"location":{"lat":33.036175,"lng":35.244582},"location_type":"APPROXIMATE","viewport":{"northeast":{"lat":33.039238,"lng":35.249184},"southwest":{"lat":33.032696,"lng":35.239398}}},"types":["locality","political"]}]},"128":{"id":128,"name":"חוסן","areaId":"32","geodata":[{"address_components":[{"long_name":"Hosen","short_name":"Hosen","types":["locality","political"]},{"long_name":"Israel","short_name":"IL","types":["country","political"]}],"formatted_address":"Hosen, Israel","geometry":{"bounds":{"northeast":{"lat":33.00348,"lng":35.30292},"southwest":{"lat":32.9937749,"lng":35.289231}},"location":{"lat":32.997699,"lng":35.298723},"location_type":"APPROXIMATE","viewport":{"northeast":{"lat":33.00348,"lng":35.30292},"southwest":{"lat":32.9937749,"lng":35.289231}}},"types":["locality","political"]}]},"129":{"id":129,"name":"כפר ורדים","areaId":"32","geodata":[{"address_components":[{"long_name":"Kfar Vradim","short_name":"Kfar Vradim","types":["locality","political"]},{"long_name":"Israel","short_name":"IL","types":["country","political"]}],"formatted_address":"Kfar Vradim, Israel","geometry":{"bounds":{"northeast":{"lat":33.011425,"lng":35.283759},"southwest":{"lat":32.989111,"lng":35.237481}},"location":{"lat":32.995088,"lng":35.269101},"location_type":"APPROXIMATE","viewport":{"northeast":{"lat":33.011425,"lng":35.283759},"southwest":{"lat":32.989111,"lng":35.237481}}},"types":["locality","political"]}]},"130":{"id":130,"name":"מעונה","areaId":"32","geodata":[{"address_components":[{"long_name":"Me'ona","short_name":"Me'ona","types":["locality","political"]},{"long_name":"Israel","short_name":"IL","types":["country","political"]}],"formatted_address":"Me'ona, Israel","geometry":{"bounds":{"northeast":{"lat":33.023364,"lng":35.266147},"southwest":{"lat":33.011074,"lng":35.25244}},"location":{"lat":33.016894,"lng":35.263626},"location_type":"APPROXIMATE","viewport":{"northeast":{"lat":33.023364,"lng":35.266147},"southwest":{"lat":33.011074,"lng":35.25244}}},"types":["locality","political"]}]},"131":{"id":131,"name":"מעיליא","areaId":"32","geodata":[{"address_components":[{"long_name":"Mi'ilya","short_name":"Mi'ilya","types":["locality","political"]},{"long_name":"Israel","short_name":"IL","types":["country","political"]}],"formatted_address":"Mi'ilya, Israel","geometry":{"bounds":{"northeast":{"lat":33.0326311,"lng":35.26874},"southwest":{"lat":33.021011,"lng":35.247382}},"location":{"lat":33.027194,"lng":35.256304},"location_type":"APPROXIMATE","viewport":{"northeast":{"lat":33.0326311,"lng":35.26874},"southwest":{"lat":33.021011,"lng":35.247382}}},"types":["locality","political"]}]},"132":{"id":132,"name":"מעלות תרשיחא","areaId":"32","geodata":[{"address_components":[{"long_name":"Ma'alot-Tarshiha","short_name":"Ma'alot-Tarshiha","types":["locality","political"]},{"long_name":"Israel","short_name":"IL","types":["country","political"]}],"formatted_address":"Ma'alot-Tarshiha, Israel","geometry":{"bounds":{"northeast":{"lat":33.0294109,"lng":35.294183},"southwest":{"lat":32.999054,"lng":35.2524289}},"location":{"lat":33.015026,"lng":35.276017},"location_type":"APPROXIMATE","viewport":{"northeast":{"lat":33.0294109,"lng":35.294183},"southwest":{"lat":32.999054,"lng":35.2524289}}},"types":["locality","political"]}]},"133":{"id":133,"name":"לוחמי הגיטאות","areaId":"35","geodata":[{"address_components":[{"long_name":"Lohamei HaGeta'ot","short_name":"Lohamei HaGeta'ot","types":["locality","political"]},{"long_name":"Israel","short_name":"IL","types":["country","political"]}],"formatted_address":"Lohamei HaGeta'ot, Israel","geometry":{"bounds":{"northeast":{"lat":32.967267,"lng":35.103146},"southwest":{"lat":32.9584079,"lng":35.0938451}},"location":{"lat":32.962661,"lng":35.096741},"location_type":"APPROXIMATE","viewport":{"northeast":{"lat":32.967267,"lng":35.103146},"southwest":{"lat":32.9584079,"lng":35.0938451}}},"types":["locality","political"]}]},"134":{"id":134,"name":"מזרעה","areaId":"35","geodata":[{"address_components":[{"long_name":"Mazra'a","short_name":"Mazra'a","types":["locality","political"]},{"long_name":"Israel","short_name":"IL","types":["country","political"]}],"formatted_address":"Mazra'a, Israel","geometry":{"bounds":{"northeast":{"lat":32.9881409,"lng":35.10308},"southwest":{"lat":32.9804449,"lng":35.0945339}},"location":{"lat":32.983652,"lng":35.098934},"location_type":"APPROXIMATE","viewport":{"northeast":{"lat":32.9881409,"lng":35.10308},"southwest":{"lat":32.9804449,"lng":35.0945339}}},"types":["locality","political"]}]},"135":{"id":135,"name":"רגבה","areaId":"35","geodata":[{"address_components":[{"long_name":"Regba","short_name":"Regba","types":["locality","political"]},{"long_name":"Israel","short_name":"IL","types":["country","political"]}],"formatted_address":"Regba, Israel","geometry":{"bounds":{"northeast":{"lat":32.980591,"lng":35.104881},"southwest":{"lat":32.9721324,"lng":35.0948159}},"location":{"lat":32.977493,"lng":35.099129},"location_type":"APPROXIMATE","viewport":{"northeast":{"lat":32.980591,"lng":35.104881},"southwest":{"lat":32.9721324,"lng":35.0948159}}},"types":["locality","political"]}]},"136":{"id":136,"name":"בוסתן הגליל","areaId":"37","geodata":[{"address_components":[{"long_name":"Bustan HaGalil","short_name":"Bustan HaGalil","types":["locality","political"]},{"long_name":"Israel","short_name":"IL","types":["country","political"]}],"formatted_address":"Bustan HaGalil, Israel","geometry":{"bounds":{"northeast":{"lat":32.958134,"lng":35.0908251},"southwest":{"lat":32.946197,"lng":35.0741171}},"location":{"lat":32.948636,"lng":35.08068799999999},"location_type":"APPROXIMATE","viewport":{"northeast":{"lat":32.958134,"lng":35.0908251},"southwest":{"lat":32.946197,"lng":35.0741171}}},"types":["locality","political"]}]},"137":{"id":137,"name":"בית העמק","areaId":"37","geodata":[{"address_components":[{"long_name":"Beit HaEmek","short_name":"Beit HaEmek","types":["locality","political"]},{"long_name":"Israel","short_name":"IL","types":["country","political"]}],"formatted_address":"Beit HaEmek, Israel","geometry":{"bounds":{"northeast":{"lat":32.975795,"lng":35.150161},"southwest":{"lat":32.967869,"lng":35.140478}},"location":{"lat":32.970683,"lng":35.144845},"location_type":"APPROXIMATE","viewport":{"northeast":{"lat":32.975795,"lng":35.150161},"southwest":{"lat":32.967869,"lng":35.140478}}},"types":["locality","political"]}]},"138":{"id":138,"name":"ג'דידה מכר","areaId":"37","geodata":[{"address_components":[{"long_name":"Makr","short_name":"Makr","types":["neighborhood","political"]},{"long_name":"Jadeidi-Makr","short_name":"Jadeidi-Makr","types":["locality","political"]},{"long_name":"Israel","short_name":"IL","types":["country","political"]}],"formatted_address":"Makr, Jadeidi-Makr, Israel","geometry":{"location":{"lat":32.935033,"lng":35.140087},"location_type":"APPROXIMATE","viewport":{"northeast":{"lat":32.9443973,"lng":35.1560944},"southwest":{"lat":32.92566770000001,"lng":35.1240796}}},"types":["neighborhood","political"]}]},"139":{"id":139,"name":"כפר מסריק","areaId":"37","geodata":[{"address_components":[{"long_name":"Kfar Masaryk","short_name":"Kfar Masaryk","types":["locality","political"]},{"long_name":"Israel","short_name":"IL","types":["country","political"]}],"formatted_address":"Kfar Masaryk, Israel","geometry":{"bounds":{"northeast":{"lat":32.8952751,"lng":35.1041619},"southwest":{"lat":32.885901,"lng":35.0946399}},"location":{"lat":32.891218,"lng":35.098414},"location_type":"APPROXIMATE","viewport":{"northeast":{"lat":32.8952751,"lng":35.1041619},"southwest":{"lat":32.885901,"lng":35.0946399}}},"types":["locality","political"]}]},"140":{"id":140,"name":"נס עמים","areaId":"37","geodata":[{"address_components":[{"long_name":"Nes Ammim","short_name":"Nes Ammim","types":["locality","political"]},{"long_name":"Israel","short_name":"IL","types":["country","political"]}],"formatted_address":"Nes Ammim, Israel","geometry":{"bounds":{"northeast":{"lat":32.968201,"lng":35.123628},"southwest":{"lat":32.963353,"lng":35.118022}},"location":{"lat":32.965465,"lng":35.121588},"location_type":"APPROXIMATE","viewport":{"northeast":{"lat":32.968201,"lng":35.123628},"southwest":{"lat":32.963353,"lng":35.118022}}},"types":["locality","political"]}]},"141":{"id":141,"name":"נתיב השיירה","areaId":"37","geodata":[{"address_components":[{"long_name":"Netiv HaShayara","short_name":"Netiv HaShayara","types":["locality","political"]},{"long_name":"Israel","short_name":"IL","types":["country","political"]}],"formatted_address":"Netiv HaShayara, Israel","geometry":{"bounds":{"northeast":{"lat":33.000796,"lng":35.143474},"southwest":{"lat":32.9869361,"lng":35.1265249}},"location":{"lat":32.991185,"lng":35.130745},"location_type":"APPROXIMATE","viewport":{"northeast":{"lat":33.000796,"lng":35.143474},"southwest":{"lat":32.9869361,"lng":35.1265249}}},"types":["locality","political"]}]},"142":{"id":142,"name":"עין המפרץ","areaId":"37","geodata":[{"address_components":[{"long_name":"Ein HaMifratz","short_name":"Ein HaMifratz","types":["locality","political"]},{"long_name":"Israel","short_name":"IL","types":["country","political"]}],"formatted_address":"Ein HaMifratz, Israel","geometry":{"bounds":{"northeast":{"lat":32.9080927,"lng":35.104239},"southwest":{"lat":32.898435,"lng":35.09068}},"location":{"lat":32.902581,"lng":35.09303999999999},"location_type":"APPROXIMATE","viewport":{"northeast":{"lat":32.9080927,"lng":35.104239},"southwest":{"lat":32.898435,"lng":35.09068}}},"types":["locality","political"]}]},"143":{"id":143,"name":"עכו","areaId":"37","geodata":[{"address_components":[{"long_name":"Acre","short_name":"Acre","types":["locality","political"]},{"long_name":"Israel","short_name":"IL","types":["country","political"]}],"formatted_address":"Acre, Israel","geometry":{"bounds":{"northeast":{"lat":32.948228,"lng":35.1103679},"southwest":{"lat":32.885722,"lng":35.0658751}},"location":{"lat":32.933052,"lng":35.082678},"location_type":"APPROXIMATE","viewport":{"northeast":{"lat":32.948228,"lng":35.1103679},"southwest":{"lat":32.885722,"lng":35.0658751}}},"types":["locality","political"]}]},"144":{"id":144,"name":"שייח' דנון","areaId":"37","geodata":[{"address_components":[{"long_name":"Sheikh Danun","short_name":"Sheikh Danun","types":["locality","political"]},{"long_name":"Israel","short_name":"IL","types":["country","political"]}],"formatted_address":"Sheikh Danun, Israel","geometry":{"bounds":{"northeast":{"lat":32.998316,"lng":35.153891},"southwest":{"lat":32.989177,"lng":35.14412799999999}},"location":{"lat":32.9938295,"lng":35.14856839999999},"location_type":"APPROXIMATE","viewport":{"northeast":{"lat":32.998316,"lng":35.153891},"southwest":{"lat":32.989177,"lng":35.14412799999999}}},"types":["locality","political"]}]},"145":{"id":145,"name":"שמרת","areaId":"37","geodata":[{"address_components":[{"long_name":"Shomrat","short_name":"Shomrat","types":["locality","political"]},{"long_name":"Israel","short_name":"IL","types":["country","political"]}],"formatted_address":"Shomrat, Israel","geometry":{"bounds":{"northeast":{"lat":32.956964,"lng":35.098579},"southwest":{"lat":32.9474731,"lng":35.091806}},"location":{"lat":32.95148,"lng":35.094955},"location_type":"APPROXIMATE","viewport":{"northeast":{"lat":32.956964,"lng":35.098579},"southwest":{"lat":32.9474731,"lng":35.091806}}},"types":["locality","political"]}]},"146":{"id":146,"name":"אשרת","areaId":"38","geodata":[{"address_components":[{"long_name":"Oshrat","short_name":"Oshrat","types":["locality","political"]},{"long_name":"Israel","short_name":"IL","types":["country","political"]}],"formatted_address":"Oshrat, Israel","geometry":{"bounds":{"northeast":{"lat":32.9750379,"lng":35.1606191},"southwest":{"lat":32.968059,"lng":35.1519889}},"location":{"lat":32.971645,"lng":35.1557},"location_type":"APPROXIMATE","viewport":{"northeast":{"lat":32.9750379,"lng":35.1606191},"southwest":{"lat":32.968059,"lng":35.1519889}}},"types":["locality","political"]}]},"147":{"id":147,"name":"ג'וליס","areaId":"38","geodata":[{"address_components":[{"long_name":"Julis","short_name":"Julis","types":["locality","political"]},{"long_name":"Israel","short_name":"IL","types":["country","political"]}],"formatted_address":"Julis, Israel","geometry":{"bounds":{"northeast":{"lat":32.9506381,"lng":35.1997249},"southwest":{"lat":32.9320689,"lng":35.160924}},"location":{"lat":32.94498,"lng":35.184243},"location_type":"APPROXIMATE","viewport":{"northeast":{"lat":32.9506381,"lng":35.1997249},"southwest":{"lat":32.9320689,"lng":35.160924}}},"types":["locality","political"]}]},"148":{"id":148,"name":"גיתה","areaId":"38","geodata":[{"address_components":[{"long_name":"Gita, Israel","short_name":"Gita, Israel","types":["locality","political"]},{"long_name":"Israel","short_name":"IL","types":["country","political"]}],"formatted_address":"Gita, Israel, Israel","geometry":{"bounds":{"northeast":{"lat":32.969919,"lng":35.253675},"southwest":{"lat":32.9644159,"lng":35.2450309}},"location":{"lat":32.967233,"lng":35.249125},"location_type":"APPROXIMATE","viewport":{"northeast":{"lat":32.969919,"lng":35.253675},"southwest":{"lat":32.9644159,"lng":35.2450309}}},"types":["locality","political"]}]},"149":{"id":149,"name":"טל אל","areaId":"38","geodata":[{"address_components":[{"long_name":"Tal-El","short_name":"Tal-El","types":["locality","political"]},{"long_name":"Israel","short_name":"IL","types":["country","political"]}],"formatted_address":"Tal-El, Israel","geometry":{"bounds":{"northeast":{"lat":32.9310739,"lng":35.186765},"southwest":{"lat":32.921293,"lng":35.170198}},"location":{"lat":32.927306,"lng":35.182499},"location_type":"APPROXIMATE","viewport":{"northeast":{"lat":32.9310739,"lng":35.186765},"southwest":{"lat":32.921293,"lng":35.170198}}},"types":["locality","political"]}]},"150":{"id":150,"name":"ירכא","areaId":"38","geodata":[{"address_components":[{"long_name":"Yarka","short_name":"Yarka","types":["locality","political"]},{"long_name":"Israel","short_name":"IL","types":["country","political"]}],"formatted_address":"Yarka, Israel","geometry":{"bounds":{"northeast":{"lat":32.978178,"lng":35.2535941},"southwest":{"lat":32.941951,"lng":35.1681239}},"location":{"lat":32.953492,"lng":35.21199},"location_type":"APPROXIMATE","viewport":{"northeast":{"lat":32.978178,"lng":35.2535941},"southwest":{"lat":32.941951,"lng":35.1681239}}},"types":["locality","political"]}]},"151":{"id":151,"name":"כליל","areaId":"38","geodata":[{"address_components":[{"long_name":"Klil","short_name":"Klil","types":["locality","political"]},{"long_name":"Israel","short_name":"IL","types":["country","political"]}],"formatted_address":"Klil, Israel","geometry":{"bounds":{"northeast":{"lat":32.9887891,"lng":35.212037},"southwest":{"lat":32.9744461,"lng":35.182165}},"location":{"lat":32.983567,"lng":35.199672},"location_type":"APPROXIMATE","viewport":{"northeast":{"lat":32.9887891,"lng":35.212037},"southwest":{"lat":32.9744461,"lng":35.182165}}},"types":["locality","political"]}]},"152":{"id":152,"name":"כפר יאסיף","areaId":"38","geodata":[{"address_components":[{"long_name":"Kafr Yasif","short_name":"Kafr Yasif","types":["locality","political"]},{"long_name":"Israel","short_name":"IL","types":["country","political"]}],"formatted_address":"Kafr Yasif, Israel","geometry":{"bounds":{"northeast":{"lat":32.9604251,"lng":35.1721349},"southwest":{"lat":32.939923,"lng":35.148767}},"location":{"lat":32.9520318,"lng":35.1599957},"location_type":"APPROXIMATE","viewport":{"northeast":{"lat":32.9604251,"lng":35.1721349},"southwest":{"lat":32.939923,"lng":35.148767}}},"types":["locality","political"]}]},"153":{"id":153,"name":"לפידות","areaId":"38","geodata":[{"address_components":[{"long_name":"Lapidot","short_name":"Lapidot","types":["locality","political"]},{"long_name":"Israel","short_name":"IL","types":["country","political"]}],"formatted_address":"Lapidot, Israel","geometry":{"bounds":{"northeast":{"lat":32.9619209,"lng":35.2655879},"southwest":{"lat":32.956089,"lng":35.2587819}},"location":{"lat":32.959801,"lng":35.260956},"location_type":"APPROXIMATE","viewport":{"northeast":{"lat":32.9619209,"lng":35.2655879},"southwest":{"lat":32.956089,"lng":35.2587819}}},"types":["locality","political"]}]},"154":{"id":154,"name":"עמקה","areaId":"38","geodata":[{"address_components":[{"long_name":"Amka","short_name":"Amka","types":["locality","political"]},{"long_name":"Israel","short_name":"IL","types":["country","political"]}],"formatted_address":"Amka, Israel","geometry":{"bounds":{"northeast":{"lat":32.9868449,"lng":35.172917},"southwest":{"lat":32.973406,"lng":35.151319}},"location":{"lat":32.977664,"lng":35.161807},"location_type":"APPROXIMATE","viewport":{"northeast":{"lat":32.9868449,"lng":35.172917},"southwest":{"lat":32.973406,"lng":35.151319}}},"types":["locality","political"]}]},"155":{"id":155,"name":"כישור","areaId":"40","geodata":[{"address_components":[{"long_name":"Kishor","short_name":"Kishor","types":["locality","political"]},{"long_name":"Israel","short_name":"IL","types":["country","political"]}],"formatted_address":"Kishor, Israel","geometry":{"bounds":{"northeast":{"lat":32.949187,"lng":35.2549759},"southwest":{"lat":32.942475,"lng":35.245476}},"location":{"lat":32.946651,"lng":35.250213},"location_type":"APPROXIMATE","viewport":{"northeast":{"lat":32.949187,"lng":35.2549759},"southwest":{"lat":32.942475,"lng":35.245476}}},"types":["locality","political"]}]},"156":{"id":156,"name":"פלך","areaId":"40","geodata":[{"address_components":[{"long_name":"Pelekh","short_name":"Pelekh","types":["locality","political"]},{"long_name":"Israel","short_name":"IL","types":["country","political"]}],"formatted_address":"Pelekh, Israel","geometry":{"bounds":{"northeast":{"lat":32.9347021,"lng":35.23484},"southwest":{"lat":32.93268390000001,"lng":35.2320839}},"location":{"lat":32.93367,"lng":35.23361},"location_type":"APPROXIMATE","viewport":{"northeast":{"lat":32.9350419802915,"lng":35.23484},"southwest":{"lat":32.9323440197085,"lng":35.2320839}}},"types":["locality","political"]}]},"157":{"id":157,"name":"תובל","areaId":"40","geodata":[{"address_components":[{"long_name":"Tuval","short_name":"Tuval","types":["locality","political"]},{"long_name":"Israel","short_name":"IL","types":["country","political"]}],"formatted_address":"Tuval, Israel","geometry":{"bounds":{"northeast":{"lat":32.93041,"lng":35.2483549},"southwest":{"lat":32.925876,"lng":35.241651}},"location":{"lat":32.928495,"lng":35.245675},"location_type":"APPROXIMATE","viewport":{"northeast":{"lat":32.93041,"lng":35.2483549},"southwest":{"lat":32.925876,"lng":35.241651}}},"types":["locality","political"]}]},"158":{"id":158,"name":"יאנוח ג'ת","areaId":"41","geodata":[{"address_components":[{"long_name":"Yanuh-Jat","short_name":"Yanuh-Jat","types":["locality","political"]},{"long_name":"Israel","short_name":"IL","types":["country","political"]}],"formatted_address":"Yanuh-Jat, Israel","geometry":{"bounds":{"northeast":{"lat":32.9951239,"lng":35.281907},"southwest":{"lat":32.9621179,"lng":35.207723}},"location":{"lat":32.981568,"lng":35.241169},"location_type":"APPROXIMATE","viewport":{"northeast":{"lat":32.9951239,"lng":35.281907},"southwest":{"lat":32.9621179,"lng":35.207723}}},"types":["locality","political"]}]},"159":{"id":159,"name":"כיסרא סומיע","areaId":"41","geodata":[{"address_components":[{"long_name":"Kisra-Sumei","short_name":"Kisra-Sumei","types":["locality","political"]},{"long_name":"Israel","short_name":"IL","types":["country","political"]}],"formatted_address":"Kisra-Sumei, Israel","geometry":{"bounds":{"northeast":{"lat":32.9942609,"lng":35.3195851},"southwest":{"lat":32.9491391,"lng":35.271218}},"location":{"lat":32.97232,"lng":35.298528},"location_type":"APPROXIMATE","viewport":{"northeast":{"lat":32.9942609,"lng":35.3195851},"southwest":{"lat":32.9491391,"lng":35.271218}}},"types":["locality","political"]}]},"160":{"id":160,"name":"מגדל תפן","areaId":"41","geodata":[{"address_components":[{"long_name":"Migdal Tefen","short_name":"Migdal Tefen","types":["administrative_area_level_4","political"]},{"long_name":"Israel","short_name":"IL","types":["country","political"]}],"formatted_address":"Migdal Tefen, Israel","geometry":{"bounds":{"northeast":{"lat":32.982375,"lng":35.288729},"southwest":{"lat":32.967916,"lng":35.262222}},"location":{"lat":32.9766793,"lng":35.278017},"location_type":"APPROXIMATE","viewport":{"northeast":{"lat":32.982375,"lng":35.288729},"southwest":{"lat":32.967916,"lng":35.262222}}},"types":["administrative_area_level_4","political"]}]},"161":{"id":161,"name":"ביענה","areaId":"42","geodata":[{"address_components":[{"long_name":"Bi'ina","short_name":"Bi'ina","types":["locality","political"]},{"long_name":"Israel","short_name":"IL","types":["country","political"]}],"formatted_address":"Bi'ina, Israel","geometry":{"bounds":{"northeast":{"lat":32.937505,"lng":35.2966399},"southwest":{"lat":32.9211819,"lng":35.2615}},"location":{"lat":32.929538,"lng":35.27191699999999},"location_type":"APPROXIMATE","viewport":{"northeast":{"lat":32.937505,"lng":35.2966399},"southwest":{"lat":32.9211819,"lng":35.2615}}},"types":["locality","political"]}]},"162":{"id":162,"name":"גילון","areaId":"42","geodata":[{"address_components":[{"long_name":"Gilon","short_name":"Gilon","types":["locality","political"]},{"long_name":"Israel","short_name":"IL","types":["country","political"]}],"formatted_address":"Gilon, Israel","geometry":{"bounds":{"northeast":{"lat":32.908011,"lng":35.244088},"southwest":{"lat":32.89928,"lng":35.2291199}},"location":{"lat":32.904338,"lng":35.232191},"location_type":"APPROXIMATE","viewport":{"northeast":{"lat":32.908011,"lng":35.244088},"southwest":{"lat":32.89928,"lng":35.2291199}}},"types":["locality","political"]}]},"163":{"id":163,"name":"דייר אל אסד","areaId":"42","geodata":[{"address_components":[{"long_name":"Deir al-Asad","short_name":"Deir al-Asad","types":["locality","political"]},{"long_name":"Israel","short_name":"IL","types":["country","political"]}],"formatted_address":"Deir al-Asad, Israel","geometry":{"bounds":{"northeast":{"lat":32.959519,"lng":35.2980191},"southwest":{"lat":32.929107,"lng":35.2518139}},"location":{"lat":32.93445,"lng":35.268394},"location_type":"APPROXIMATE","viewport":{"northeast":{"lat":32.959519,"lng":35.2980191},"southwest":{"lat":32.929107,"lng":35.2518139}}},"types":["locality","political"]}]},"164":{"id":164,"name":"כרמיאל","areaId":"42","geodata":[{"address_components":[{"long_name":"Karmiel","short_name":"Karmiel","types":["locality","political"]},{"long_name":"Israel","short_name":"IL","types":["country","political"]}],"formatted_address":"Karmiel, Israel","geometry":{"bounds":{"northeast":{"lat":32.9300919,"lng":35.3623609},"southwest":{"lat":32.8924931,"lng":35.260689}},"location":{"lat":32.914671,"lng":35.292417},"location_type":"APPROXIMATE","viewport":{"northeast":{"lat":32.9300919,"lng":35.3623609},"southwest":{"lat":32.8924931,"lng":35.260689}}},"types":["locality","political"]}]},"165":{"id":165,"name":"לבון","areaId":"42","geodata":[{"address_components":[{"long_name":"Lavon, Israel","short_name":"Lavon, Israel","types":["locality","political"]},{"long_name":"Israel","short_name":"IL","types":["country","political"]}],"formatted_address":"Lavon, Israel, Israel","geometry":{"bounds":{"northeast":{"lat":32.946311,"lng":35.291649},"southwest":{"lat":32.939461,"lng":35.280037}},"location":{"lat":32.94118,"lng":35.286475},"location_type":"APPROXIMATE","viewport":{"northeast":{"lat":32.946311,"lng":35.291649},"southwest":{"lat":32.939461,"lng":35.280037}}},"types":["locality","political"]}]},"166":{"id":166,"name":"מג'ד אל כרום","areaId":"42","geodata":[{"address_components":[{"long_name":"Majd al-Krum","short_name":"Majd al-Krum","types":["locality","political"]},{"long_name":"Israel","short_name":"IL","types":["country","political"]}],"formatted_address":"Majd al-Krum, Israel","geometry":{"bounds":{"northeast":{"lat":32.9305989,"lng":35.274101},"southwest":{"lat":32.900759,"lng":35.184593}},"location":{"lat":32.920132,"lng":35.25665},"location_type":"APPROXIMATE","viewport":{"northeast":{"lat":32.9305989,"lng":35.274101},"southwest":{"lat":32.900759,"lng":35.184593}}},"types":["locality","political"]}]},"167":{"id":167,"name":"נחף","areaId":"42","geodata":[{"address_components":[{"long_name":"Nahf","short_name":"Nahf","types":["locality","political"]},{"long_name":"Israel","short_name":"IL","types":["country","political"]}],"formatted_address":"Nahf, Israel","geometry":{"bounds":{"northeast":{"lat":32.946304,"lng":35.338344},"southwest":{"lat":32.9239291,"lng":35.2955691}},"location":{"lat":32.934675,"lng":35.31652},"location_type":"APPROXIMATE","viewport":{"northeast":{"lat":32.946304,"lng":35.338344},"southwest":{"lat":32.9239291,"lng":35.2955691}}},"types":["locality","political"]}]},"168":{"id":168,"name":"סאג'ור","areaId":"42","geodata":[{"address_components":[{"long_name":"Sajur","short_name":"Sajur","types":["locality","political"]},{"long_name":"Israel","short_name":"IL","types":["country","political"]}],"formatted_address":"Sajur, Israel","geometry":{"bounds":{"northeast":{"lat":32.947914,"lng":35.356778},"southwest":{"lat":32.9305591,"lng":35.3285781}},"location":{"lat":32.943109,"lng":35.343616},"location_type":"APPROXIMATE","viewport":{"northeast":{"lat":32.947914,"lng":35.356778},"southwest":{"lat":32.9305591,"lng":35.3285781}}},"types":["locality","political"]}]},