{"1":{"id":1,"name":"א דיר במזרח הר חברון","areaId":200,"geodata":[{"address_components":[{"long_name":"al Dayr","short_name":"al Dayr","types":["locality","political"]}],"formatted_address":"al Dayr","geometry":{"location":{"lat":31.652651,"lng":35.21434199999999},"location_type":"APPROXIMATE","viewport":{"northeast":{"lat":31.6539999802915,"lng":35.2156909802915},"southwest":{"lat":31.6513020197085,"lng":35.2129930197085}}},"partial_match":true,"place_id":"ChIJkU4Gj1XfAhURbBTwVxHCOvM","types":["locality","political"]}]},"2":{"id":2,"name":"א דיר במערב הר חברון","areaId":188,"geodata":[{"address_components":[{"long_name":"al Dayr","short_name":"al Dayr","types":["locality","political"]}],"formatted_address":"al Dayr","geometry":{"location":{"lat":31.655232,"lng":35.025616},"location_type":"APPROXIMATE","viewport":{"northeast":{"lat":31.6565809802915,"lng":35.0269649802915},"southwest":{"lat":31.6538830197085,"lng":35.0242670197085}}},"partial_match":true,"place_id":"ChIJRUloeLjCAhURyCGftwqPmDY","types":["locality","political"]}]},"3":{"id":3,"name":"א דיראת","areaId":207,"geodata":[{"address_components":[{"long_name":"al Dayrat","short_name":"al Dayrat","types":["locality","political"]}],"formatted_address":"al Dayrat","geometry":{"location":{"lat":31.443874,"lng":35.15969},"location_type":"APPROXIMATE","viewport":{"northeast":{"lat":31.4452229802915,"lng":35.16103898029149},"southwest":{"lat":31.4425250197085,"lng":35.15834101970849}}},"partial_match":true,"place_id":"ChIJI29XrDrjAhUR_SaFWPLp7xc","types":["locality","political"]}]},"4":{"id":4,"name":"א דנפירי","areaId":300,"geodata":[{"address_components":[{"long_name":"E-Danfiri","short_name":"E-Danfiri","types":["political","sublocality","sublocality_level_1"]},{"long_name":"Be'er Sheva","short_name":"Be'er Sheva","types":["administrative_area_level_2","political"]},{"long_name":"South District","short_name":"South District","types":["administrative_area_level_1","political"]},{"long_name":"Israel","short_name":"IL","types":["country","political"]}],"formatted_address":"E-Danfiri, Israel","geometry":{"location":{"lat":31.1277,"lng":34.813964},"location_type":"APPROXIMATE","viewport":{"northeast":{"lat":31.1290489802915,"lng":34.81531298029149},"southwest":{"lat":31.1263510197085,"lng":34.8126150197085}}},"partial_match":true,"place_id":"ChIJ3cw1ys1rAhURKU-AcrGDa-o","types":["political","sublocality","sublocality_level_1"]}]},"5":{"id":5,"name":"א זיאדנה דרומית לרהט","areaId":286,"geodata":[{"address_components":[{"long_name":"E-Ziyadna (South to Rahat)","short_name":"E-Ziyadna (South to Rahat)","types":["political","sublocality","sublocality_level_1"]},{"long_name":"Rahat","short_name":"Rahat","types":["locality","political"]},{"long_name":"Be'er Sheva","short_name":"Be'er Sheva","types":["administrative_area_level_2","political"]},{"long_name":"South District","short_name":"South District","types":["administrative_area_level_1","political"]},{"long_name":"Israel","short_name":"IL","types":["country","political"]}],"formatted_address":"E-Ziyadna (South to Rahat), Rahat, Israel","geometry":{"location":{"lat":31.367093,"lng":34.740095},"location_type":"APPROXIMATE","viewport":{"northeast":{"lat":31.36844198029149,"lng":34.74144398029149},"southwest":{"lat":31.3657440197085,"lng":34.73874601970849}}},"partial_match":true,"place_id":"ChIJMTq2bVJiAhURzdiFIaDunFo","types":["political","sublocality","sublocality_level_1"]}]},"6":{"id":6,"name":"א זיאדנה צפונית לרהט","areaId":286,"geodata":[{"address_components":[{"long_name":"E-Ziyadna (North to Rahat)","short_name":"E-Ziyadna (North to Rahat)","types":["political","sublocality","sublocality_level_1"]},{"long_name":"Be'er Sheva","short_name":"Be'er Sheva","types":["administrative_area_level_2","political"]},{"long_name":"South District","short_name":"South District","types":["administrative_area_level_1","political"]},{"long_name":"Israel","short_name":"IL","types":["country","political"]}],"formatted_address":"E-Ziyadna (North to Rahat), Israel","geometry":{"location":{"lat":31.414435,"lng":34.77579},"location_type":"APPROXIMATE","viewport":{"northeast":{"lat":31.4157839802915,"lng":34.7771389802915},"southwest":{"lat":31.4130860197085,"lng":34.7744410197085}}},"partial_match":true,"place_id":"ChIJ2caGQyCKAhURYZ8Hb_J_HFA","types":["political","sublocality","sublocality_level_1"]}]},"7":{"id":7,"name":"א זעיים","areaId":194,"geodata":[{"address_components":[{"long_name":"alZa'im","short_name":"alZa'im","types":["locality","political"]}],"formatted_address":"alZa'im","geometry":{"location":{"lat":31.787701,"lng":35.263531},"location_type":"APPROXIMATE","viewport":{"northeast":{"lat":31.7890499802915,"lng":35.2648799802915},"southwest":{"lat":31.7863520197085,"lng":35.2621820197085}}},"partial_match":true,"place_id":"ChIJyyHmJXcpAxURcX7bouFT5zA","types":["locality","political"]}]},"8":{"id":8,"name":"א טבקה","areaId":207,"geodata":[{"address_components":[{"long_name":"alTabqa","short_name":"alTabqa","types":["locality","political"]}],"formatted_address":"alTabqa","geometry":{"location":{"lat":31.49649,"lng":35.016446},"location_type":"APPROXIMATE","viewport":{"northeast":{"lat":31.4978389802915,"lng":35.01779498029151},"southwest":{"lat":31.4951410197085,"lng":35.01509701970851}}},"partial_match":true,"place_id":"ChIJLR54JsDvAhURrHhLnOgiItQ","types":["locality","political"]}]},"9":{"id":9,"name":"א טוואני","areaId":207,"geodata":[{"address_components":[{"long_name":"alTawani","short_name":"alTawani","types":["locality","political"]}],"formatted_address":"alTawani","geometry":{"location":{"lat":31.413761,"lng":35.152657},"location_type":"APPROXIMATE","viewport":{"northeast":{"lat":31.4151099802915,"lng":35.1540059802915},"southwest":{"lat":31.4124120197085,"lng":35.1513080197085}}},"partial_match":true,"place_id":"ChIJR05TT-r8AhURmu5WbGJZ29k","types":["locality","political"]}]},"10":{"id":10,"name":"א לובאן","areaId":123,"geodata":[{"address_components":[{"long_name":"Al-Lubban Al-Gharbi","short_name":"Al-Lubban Al-Gharbi","types":["locality","political"]}],"formatted_address":"Al-Lubban Al-Gharbi","geometry":{"location":{"lat":32.035776,"lng":35.038365},"location_type":"APPROXIMATE","viewport":{"northeast":{"lat":32.0371249802915,"lng":35.0397139802915},"southwest":{"lat":32.0344270197085,"lng":35.0370160197085}}},"partial_match":true,"place_id":"ChIJGV1B-v0xHRURytJTWMTXF3s","types":["locality","political"]}]},"11":{"id":11,"name":"א נבארי","areaId":296,"geodata":[{"address_components":[{"long_name":"E-Nabari","short_name":"E-Nabari","types":["political","sublocality","sublocality_level_1"]},{"long_name":"Hura","short_name":"Hura","types":["locality","political"]},{"long_name":"Be'er Sheva","short_name":"Be'er Sheva","types":["administrative_area_level_2","political"]},{"long_name":"South District","short_name":"South District","types":["administrative_area_level_1","political"]},{"long_name":"Israel","short_name":"IL","types":["country","political"]}],"formatted_address":"E-Nabari, Hura, Israel","geometry":{"location":{"lat":31.282467,"lng":34.941101},"location_type":"APPROXIMATE","viewport":{"northeast":{"lat":31.2838159802915,"lng":34.9424499802915},"southwest":{"lat":31.2811180197085,"lng":34.9397520197085}}},"place_id":"ChIJzanKP8heAhURfeo163LYrA8","types":["political","sublocality","sublocality_level_1"]}]},"12":{"id":12,"name":"א נוואקיר","areaId":15,"geodata":[{"address_components":[{"long_name":"al-Nawaqir","short_name":"al-Nawaqir","types":["locality","political"]},{"long_name":"Akko","short_name":"Akko","types":["administrative_area_level_2","political"]},{"long_name":"North District","short_name":"North District","types":["administrative_area_level_1","political"]},{"long_name":"Israel","short_name":"IL","types":["country","political"]}],"formatted_address":"al-Nawaqir, Israel","geometry":{"location":{"lat":33.090788,"lng":35.213638},"location_type":"APPROXIMATE","viewport":{"northeast":{"lat":33.09213698029149,"lng":35.21498698029149},"southwest":{"lat":33.08943901970849,"lng":35.21228901970849}}},"place_id":"ChIJ8wp-3qzUHRURgQttwTVM_vM","types":["locality","political"]}]},"13":{"id":13,"name":"א סייד ","areaId":296,"geodata":[{"address_components":[{"long_name":"AlSayid Tribe","short_name":"AlSayid Tribe","types":["political","sublocality","sublocality_level_1"]},{"long_name":"Be'er Sheva","short_name":"Be'er Sheva","types":["administrative_area_level_2","political"]},{"long_name":"South District","short_name":"South District","types":["administrative_area_level_1","political"]},{"long_name":"Israel","short_name":"IL","types":["country","political"]}],"formatted_address":"AlSayid Tribe, Israel","geometry":{"location":{"lat":31.281719,"lng":34.916298},"location_type":"APPROXIMATE","viewport":{"northeast":{"lat":31.2830679802915,"lng":34.91764698029149},"southwest":{"lat":31.2803700197085,"lng":34.91494901970849}}},"place_id":"ChIJuyJt5L5eAhUR8xLzhptptKQ","types":["political","sublocality","sublocality_level_1"]}]},"14":{"id":14,"name":"א סלבה","areaId":7,"geodata":[{"address_components":[{"long_name":"al-Saliba","short_name":"al-Saliba","types":["locality","political"]}],"formatted_address":"al-Saliba","geometry":{"location":{"lat":32.929395,"lng":35.71276599999999},"location_type":"APPROXIMATE","viewport":{"northeast":{"lat":32.9307439802915,"lng":35.71411498029149},"southwest":{"lat":32.9280460197085,"lng":35.7114170197085}}},"place_id":"ChIJ7_AjJZocHBUROeClU1ckfng","types":["locality","political"]}]},"15":{"id":15,"name":"א ראם","areaId":126,"geodata":[{"address_components":[{"long_name":"al-Ram","short_name":"al-Ram","types":["locality","political"]}],"formatted_address":"al-Ram","geometry":{"location":{"lat":31.849252,"lng":35.233489},"location_type":"APPROXIMATE","viewport":{"northeast":{"lat":31.8506009802915,"lng":35.2348379802915},"southwest":{"lat":31.8479030197085,"lng":35.2321400197085}}},"partial_match":true,"place_id":"ChIJgzhGeIoqAxUR5YRDPaMDVD0","types":["locality","political"]}]},"16":{"id":16,"name":"א ראס","areaId":120,"geodata":[{"address_components":[{"long_name":"al-Ra's","short_name":"al-Ra's","types":["locality","political"]}],"formatted_address":"al-Ra's","geometry":{"location":{"lat":32.251748,"lng":35.062921},"location_type":"APPROXIMATE","viewport":{"northeast":{"lat":32.2530969802915,"lng":35.0642699802915},"southwest":{"lat":32.2503990197085,"lng":35.0615720197085}}},"partial_match":true,"place_id":"ChIJ40B_L5giHRUR8E3JWpWlgis","types":["locality","political"]}]},"17":{"id":17,"name":"א ריחייה","areaId":207,"geodata":[{"address_components":[{"long_name":"al-Rayhiyya","short_name":"al-Rayhiyya","types":["locality","political"]}],"formatted_address":"al-Rayhiyya","geometry":{"location":{"lat":31.470478,"lng":35.078903},"location_type":"APPROXIMATE","viewport":{"northeast":{"lat":31.4718269802915,"lng":35.08025198029151},"southwest":{"lat":31.4691290197085,"lng":35.07755401970851}}},"partial_match":true,"place_id":"ChIJo3QCQyblAhURrBS0JSc8-J8","types":["locality","political"]}]},"18":{"id":18,"name":"א שהאדה","areaId":119,"geodata":[{"address_components":[{"long_name":"alShahada","short_name":"alShahada","types":["locality","political"]}],"formatted_address":"alShahada","geometry":{"location":{"lat":32.429988,"lng":35.271843},"location_type":"APPROXIMATE","viewport":{"northeast":{"lat":32.4313369802915,"lng":35.2731919802915},"southwest":{"lat":32.42863901970851,"lng":35.2704940197085}}},"partial_match":true,"place_id":"ChIJ3RQAUib8HBURJox1NyfCR6Y","types":["locality","political"]}]},"19":{"id":19,"name":"א שויוח","areaId":206,"geodata":[{"address_components":[{"long_name":"alShuyukh","short_name":"alShuyukh","types":["locality","political"]}],"formatted_address":"alShuyukh","geometry":{"location":{"lat":31.574996,"lng":35.149421},"location_type":"APPROXIMATE","viewport":{"northeast":{"lat":31.5763449802915,"lng":35.15076998029149},"southwest":{"lat":31.5736470197085,"lng":35.14807201970849}}},"partial_match":true,"place_id":"ChIJKUKEmergAhUREBYKaAopiVw","types":["locality","political"]}]},"20":{"id":20,"name":"א שייח' אחמד","areaId":121,"geodata":[{"address_components":[{"long_name":"alShaykh Ahmad","short_name":"alShaykh Ahmad","types":["locality","political"]}],"formatted_address":"alShaykh Ahmad","geometry":{"location":{"lat":32.148946,"lng":35.001112},"location_type":"APPROXIMATE","viewport":{"northeast":{"lat":32.1502949802915,"lng":35.0024609802915},"southwest":{"lat":32.1475970197085,"lng":34.9997630197085}}},"partial_match":true,"place_id":"ChIJsaKfJ_E6HRURpJfjhKt6q9U","types":["locality","political"]}]},"21":{"id":21,"name":"א.ת אשקלון","areaId":247,"geodata":[{"address_components":[{"long_name":"Ashkelon Street","short_name":"Ashkelon St","types":["route"]},{"long_name":"Tel Aviv-Yafo","short_name":"Tel Aviv-Yafo","types":["locality","political"]},{"long_name":"Tel Aviv District","short_name":"Tel Aviv District","types":["administrative_area_level_1","political"]},{"long_name":"Israel","short_name":"IL","types":["country","political"]}],"formatted_address":"Ashkelon St, Tel Aviv-Yafo, Israel","geometry":{"bounds":{"northeast":{"lat":32.0594226,"lng":34.763116},"southwest":{"lat":32.05761,"lng":34.7612554}},"location":{"lat":32.0586191,"lng":34.7621429},"location_type":"GEOMETRIC_CENTER","viewport":{"northeast":{"lat":32.0598652802915,"lng":34.7635346802915},"southwest":{"lat":32.0571673197085,"lng":34.7608367197085}}},"partial_match":true,"place_id":"ChIJqUPd9JdMHRURNTozC7jrx-8","types":["route"]}]},"22":{"id":22,"name":"אבו ג'אבר","areaId":287,"geodata":[{"address_components":[{"long_name":"Abu Jaber","short_name":"Abu Jaber","types":["political","sublocality","sublocality_level_1"]},{"long_name":"Laqiya","short_name":"Laqiya","types":["locality","political"]},{"long_name":"Be'er Sheva","short_name":"Be'er Sheva","types":["administrative_area_level_2","political"]},{"long_name":"South District","short_name":"South District","types":["administrative_area_level_1","political"]},{"long_name":"Israel","short_name":"IL","types":["country","political"]}],"formatted_address":"Abu Jaber, Laqiya, Israel","geometry":{"location":{"lat":31.31525999999999,"lng":34.868677},"location_type":"APPROXIMATE","viewport":{"northeast":{"lat":31.31660898029149,"lng":34.87002598029149},"southwest":{"lat":31.3139110197085,"lng":34.8673280197085}}},"place_id":"ChIJ1WDOOS9eAhURhQgcwL9FT9U","types":["political","sublocality","sublocality_level_1"]}]},"23":{"id":23,"name":"אבו ג'אבר דרומית ממיתר","areaId":296,"geodata":[{"address_components":[{"long_name":"Abu Jaber (South to Meitar)","short_name":"Abu Jaber (South to Meitar)","types":["political","sublocality","sublocality_level_1"]},{"long_name":"Hura","short_name":"Hura","types":["locality","political"]},{"long_name":"Be'er Sheva","short_name":"Be'er Sheva","types":["administrative_area_level_2","political"]},{"long_name":"South District","short_name":"South District","types":["administrative_area_level_1","political"]},{"long_name":"Israel","short_name":"IL","types":["country","political"]}],"formatted_address":"Abu Jaber (South to Meitar), Hura, Israel","geometry":{"location":{"lat":31.312164,"lng":34.934897},"location_type":"APPROXIMATE","viewport":{"northeast":{"lat":31.3135129802915,"lng":34.9362459802915},"southwest":{"lat":31.3108150197085,"lng":34.9335480197085}}},"partial_match":true,"place_id":"ChIJE3NCvSRfAhURd4EuoZeEuKs","types":["political","sublocality","sublocality_level_1"]}]},"24":{"id":24,"name":"אבו ג'ודה","areaId":299,"geodata":[{"address_components":[{"long_name":"Abu Joda","short_name":"Abu Joda","types":["political","sublocality","sublocality_level_1"]},{"long_name":"Be'er Sheva","short_name":"Be'er Sheva","types":["administrative_area_level_2","political"]},{"long_name":"South District","short_name":"South District","types":["administrative_area_level_1","political"]},{"long_name":"Israel","short_name":"IL","types":["country","political"]}],"formatted_address":"Abu Joda, Israel","geometry":{"location":{"lat":31.234448,"lng":35.111137},"location_type":"APPROXIMATE","viewport":{"northeast":{"lat":31.2357969802915,"lng":35.1124859802915},"southwest":{"lat":31.2330990197085,"lng":35.1097880197085}}},"partial_match":true,"place_id":"ChIJR1igRJFWAhURKX-QNG-wgg8","types":["political","sublocality","sublocality_level_1"]}]},"25":{"id":25,"name":"אבו ג'ווייעד","areaId":299,"geodata":[{"address_components":[{"long_name":"Abu Jwei'ad","short_name":"Abu Jwei'ad","types":["political","sublocality","sublocality_level_1"]},{"long_name":"Be'er Sheva","short_name":"Be'er Sheva","types":["administrative_area_level_2","political"]},{"long_name":"South District","short_name":"South District","types":["administrative_area_level_1","political"]},{"long_name":"Israel","short_name":"IL","types":["country","political"]}],"formatted_address":"Abu Jwei'ad, Israel","geometry":{"location":{"lat":31.180663,"lng":35.072843},"location_type":"APPROXIMATE","viewport":{"northeast":{"lat":31.1820119802915,"lng":35.0741919802915},"southwest":{"lat":31.1793140197085,"lng":35.0714940197085}}},"place_id":"ChIJ1zOuDvhQAhURjrLJ3n1EoN0","types":["political","sublocality","sublocality_level_1"]}]},"26":{"id":26,"name":"אבו גוש","areaId":189,"geodata":[{"address_components":[{"long_name":"Israel National Trail","short_name":"Israel National Trail","types":["route"]}],"formatted_address":"Israel National Trail","geometry":{"bounds":{"northeast":{"lat":33.2506242,"lng":35.657397},"southwest":{"lat":29.5088516,"lng":34.7388949}},"location":{"lat":31.3409594,"lng":35.1009942},"location_type":"GEOMETRIC_CENTER","viewport":{"northeast":{"lat":33.2506242,"lng":35.657397},"southwest":{"lat":29.5088516,"lng":34.7388949}}},"partial_match":true,"place_id":"ChIJdRQCC579AhURMMBo17qwX20","types":["route"]}]},"27":{"id":27,"name":"אבו דיאב","areaId":63,"geodata":[{"address_components":[{"long_name":"Abu Diyab","short_name":"Abu Diyab","types":["political","sublocality","sublocality_level_1"]},{"long_name":"Akko","short_name":"Akko","types":["administrative_area_level_2","political"]},{"long_name":"North District","short_name":"North District","types":["administrative_area_level_1","political"]},{"long_name":"Israel","short_name":"IL","types":["country","political"]}],"formatted_address":"Abu Diyab, Israel","geometry":{"location":{"lat":32.76924400000001,"lng":35.17954400000001},"location_type":"APPROXIMATE","viewport":{"northeast":{"lat":32.77059298029151,"lng":35.18089298029151},"southwest":{"lat":32.76789501970851,"lng":35.17819501970851}}},"place_id":"ChIJ7d7Hg3qzHRURnSLnq44qinM","types":["political","sublocality","sublocality_level_1"]}]},"28":{"id":28,"name":"אבו דיס","areaId":194,"geodata":[{"address_components":[{"long_name":"Abu Dis","short_name":"Abu Dis","types":["locality","political"]}],"formatted_address":"Abu Dis","geometry":{"location":{"lat":31.763582,"lng":35.257722},"location_type":"APPROXIMATE","viewport":{"northeast":{"lat":31.7649309802915,"lng":35.2590709802915},"southwest":{"lat":31.7622330197085,"lng":35.25637301970851}}},"partial_match":true,"place_id":"ChIJgy09kqopAxURL_4talKgMtY","types":["locality","political"]}]},"29":{"id":29,"name":"אבו טראש","areaId":287,"geodata":[{"address_components":[{"long_name":"Abu Tarash","short_name":"Abu Tarash","types":["political","sublocality","sublocality_level_1"]},{"long_name":"Omer","short_name":"Omer","types":["locality","political"]},{"long_name":"Be'er Sheva","short_name":"Be'er Sheva","types":["administrative_area_level_2","political"]},{"long_name":"South District","short_name":"South District","types":["administrative_area_level_1","political"]},{"long_name":"Israel","short_name":"IL","types":["country","political"]}],"formatted_address":"Abu Tarash, Omer, Israel","geometry":{"location":{"lat":31.289045,"lng":34.854024},"location_type":"APPROXIMATE","viewport":{"northeast":{"lat":31.29039398029149,"lng":34.8553729802915},"southwest":{"lat":31.2876960197085,"lng":34.8526750197085}}},"partial_match":true,"place_id":"ChIJExqnJ61gAhURpzxSviECXQc","types":["political","sublocality","sublocality_level_1"]}]},"30":{"id":30,"name":"אבו כף אום בטין","areaId":287,"geodata":[{"address_components":[{"long_name":"Umm Batin","short_name":"Umm Batin","types":["political","sublocality","sublocality_level_1"]},{"long_name":"Be'er Sheva","short_name":"Be'er Sheva","types":["administrative_area_level_2","political"]},{"long_name":"South District","short_name":"South District","types":["administrative_area_level_1","political"]},{"long_name":"Israel","short_name":"IL","types":["country","political"]}],"formatted_address":"Umm Batin, Israel","geometry":{"bounds":{"northeast":{"lat":31.2855278,"lng":34.8903116},"southwest":{"lat":31.2699384,"lng":34.8750599}},"location":{"lat":31.27674369999999,"lng":34.8829215},"location_type":"APPROXIMATE","viewport":{"northeast":{"lat":31.2855278,"lng":34.8903116},"southwest":{"lat":31.2699384,"lng":34.8750599}}},"place_id":"ChIJARLC1gpeAhUR-3rNdaPvtZI","types":["political","sublocality","sublocality_level_1"]}]},"31":{"id":31,"name":"אבו נוג'ים","areaId":200,"geodata":[{"address_components":[{"long_name":"Abu Nujaym","short_name":"Abu Nujaym","types":["locality","political"]}],"formatted_address":"Abu Nujaym","geometry":{"location":{"lat":31.66192,"lng":35.199291},"location_type":"APPROXIMATE","viewport":{"northeast":{"lat":31.6632689802915,"lng":35.20063998029149},"southwest":{"lat":31.6605710197085,"lng":35.19794201970849}}},"partial_match":true,"place_id":"ChIJhdbcabPYAhURu21nzTIY8AQ","types":["locality","political"]}]},"32":{"id":32,"name":"אבו סלמאן","areaId":121,"geodata":[{"address_components":[{"long_name":"Abu Salman","short_name":"Abu Salman","types":["locality","political"]}],"formatted_address":"Abu Salman","geometry":{"location":{"lat":32.140361,"lng":34.998989},"location_type":"APPROXIMATE","viewport":{"northeast":{"lat":32.1417099802915,"lng":35.0003379802915},"southwest":{"lat":32.1390120197085,"lng":34.99764001970851}}},"partial_match":true,"place_id":"ChIJawJibYs6HRUR_Sci5eQsaos","types":["locality","political"]}]},"33":{"id":33,"name":"אבו סריחאן","areaId":287,"geodata":[{"address_components":[{"long_name":"Abu Sarikhan","short_name":"Abu Sarikhan","types":["political","sublocality","sublocality_level_1"]},{"long_name":"Be'er Sheva","short_name":"Be'er Sheva","types":["administrative_area_level_2","political"]},{"long_name":"South District","short_name":"South District","types":["administrative_area_level_1","political"]},{"long_name":"Israel","short_name":"IL","types":["country","political"]}],"formatted_address":"Abu Sarikhan, Israel","geometry":{"location":{"lat":31.254333,"lng":34.881407},"location_type":"APPROXIMATE","viewport":{"northeast":{"lat":31.2556819802915,"lng":34.8827559802915},"southwest":{"lat":31.2529840197085,"lng":34.8800580197085}}},"partial_match":true,"place_id":"ChIJ_aiYhpZdAhURAgG6cP9aDHw","types":["political","sublocality","sublocality_level_1"]}]},"34":{"id":34,"name":"אבו עבדון","areaId":287,"geodata":[{"address_components":[{"long_name":"Abu Abdun","short_name":"Abu Abdun","types":["political","sublocality","sublocality_level_1"]},{"long_name":"Be'er Sheva","short_name":"Be'er Sheva","types":["administrative_area_level_2","political"]},{"long_name":"South District","short_name":"South District","types":["administrative_area_level_1","political"]},{"long_name":"Israel","short_name":"IL","types":["country","political"]}],"formatted_address":"Abu Abdun, Israel","geometry":{"location":{"lat":31.30139699999999,"lng":34.841655},"location_type":"APPROXIMATE","viewport":{"northeast":{"lat":31.30274598029149,"lng":34.84300398029149},"southwest":{"lat":31.30004801970849,"lng":34.84030601970849}}},"partial_match":true,"place_id":"ChIJnwE87bdgAhURjgyrSZzHmhc","types":["political","sublocality","sublocality_level_1"]}]},"35":{"id":35,"name":"אבו עמרה","areaId":287,"geodata":[{"address_components":[{"long_name":"Abu Amra","short_name":"Abu Amra","types":["political","sublocality","sublocality_level_1"]},{"long_name":"Be'er Sheva","short_name":"Be'er Sheva","types":["administrative_area_level_2","political"]},{"long_name":"South District","short_name":"South District","types":["administrative_area_level_1","political"]},{"long_name":"Israel","short_name":"IL","types":["country","political"]}],"formatted_address":"Abu Amra, Israel","geometry":{"location":{"lat":31.282188,"lng":34.872739},"location_type":"APPROXIMATE","viewport":{"northeast":{"lat":31.2835369802915,"lng":34.8740879802915},"southwest":{"lat":31.2808390197085,"lng":34.8713900197085}}},"place_id":"ChIJH1f5Wf1dAhURahREpxsab7M","types":["political","sublocality","sublocality_level_1"]}]},"36":{"id":36,"name":"אבו עסא","areaId":287,"geodata":[{"address_components":[{"long_name":"Abu Isa","short_name":"Abu Isa","types":["political","sublocality","sublocality_level_1"]},{"long_name":"Be'er Sheva","short_name":"Be'er Sheva","types":["administrative_area_level_2","political"]},{"long_name":"South District","short_name":"South District","types":["administrative_area_level_1","political"]},{"long_name":"Israel","short_name":"IL","types":["country","political"]}],"formatted_address":"Abu Isa, Israel","geometry":{"location":{"lat":31.250246,"lng":34.873389},"location_type":"APPROXIMATE","viewport":{"northeast":{"lat":31.25159498029149,"lng":34.8747379802915},"southwest":{"lat":31.2488970197085,"lng":34.8720400197085}}},"partial_match":true,"place_id":"ChIJHbJGLYVdAhURFcuKB5QMBMc","types":["political","sublocality","sublocality_level_1"]}]},"37":{"id":37,"name":"אבו עפאש","areaId":300,"geodata":[{"address_components":[{"long_name":"Abu Afash","short_name":"Abu Afash","types":["political","sublocality","sublocality_level_1"]},{"long_name":"Be'er Sheva","short_name":"Be'er Sheva","types":["administrative_area_level_2","political"]},{"long_name":"South District","short_name":"South District","types":["administrative_area_level_1","political"]},{"long_name":"Israel","short_name":"IL","types":["country","political"]}],"formatted_address":"Abu Afash, Israel","geometry":{"location":{"lat":31.15986,"lng":34.808983},"location_type":"APPROXIMATE","viewport":{"northeast":{"lat":31.1612089802915,"lng":34.81033198029149},"southwest":{"lat":31.1585110197085,"lng":34.80763401970849}}},"partial_match":true,"place_id":"ChIJ09Jx7nJpAhURIrbrUMy9TuA","types":["political","sublocality","sublocality_level_1"]}]},"38":{"id":38,"name":"אבו קוידר אל עפאוי דרומית לנבטים","areaId":297,"geodata":[{"address_components":[{"long_name":"Abu Queider El Afauy (South to Nevatim)","short_name":"Abu Queider El Afauy (South to Nevatim)","types":["political","sublocality","sublocality_level_1"]},{"long_name":"Be'er Sheva","short_name":"Be'er Sheva","types":["administrative_area_level_2","political"]},{"long_name":"South District","short_name":"South District","types":["administrative_area_level_1","political"]},{"long_name":"Israel","short_name":"IL","types":["country","political"]}],"formatted_address":"Abu Queider El Afauy (South to Nevatim), Israel","geometry":{"location":{"lat":31.213979,"lng":34.873003},"location_type":"APPROXIMATE","viewport":{"northeast":{"lat":31.2153279802915,"lng":34.8743519802915},"southwest":{"lat":31.2126300197085,"lng":34.8716540197085}}},"partial_match":true,"place_id":"ChIJqUU_zlpdAhURp41IpvTpGO4","types":["political","sublocality","sublocality_level_1"]}]},"39":{"id":39,"name":"אבו קרינאת","areaId":299,"geodata":[{"address_components":[{"long_name":"Abu Qreinat (South to Ar'ara, Negev)","short_name":"Abu Qreinat (South to Ar'ara, Negev)","types":["political","sublocality","sublocality_level_1"]},{"long_name":"Be'er Sheva","short_name":"Be'er Sheva","types":["administrative_area_level_2","political"]},{"long_name":"South District","short_name":"South District","types":["administrative_area_level_1","political"]},{"long_name":"Israel","short_name":"IL","types":["country","political"]}],"formatted_address":"Abu Qreinat (South to Ar'ara, Negev), Israel","geometry":{"location":{"lat":31.141714,"lng":34.976162},"location_type":"APPROXIMATE","viewport":{"northeast":{"lat":31.1430629802915,"lng":34.97751098029149},"southwest":{"lat":31.1403650197085,"lng":34.9748130197085}}},"partial_match":true,"place_id":"ChIJ_-9Uu-1EAhURstI9djdWQFs","types":["political","sublocality","sublocality_level_1"]},{"address_components":[{"long_name":"Abu Qreinat (West to Dimona)","short_name":"Abu Qreinat (West to Dimona)","types":["political","sublocality","sublocality_level_1"]},{"long_name":"Be'er Sheva","short_name":"Be'er Sheva","types":["administrative_area_level_2","political"]},{"long_name":"South District","short_name":"South District","types":["administrative_area_level_1","political"]},{"long_name":"Israel","short_name":"IL","types":["country","political"]}],"formatted_address":"Abu Qreinat (West to Dimona), Israel","geometry":{"location":{"lat":31.101264,"lng":34.986851},"location_type":"APPROXIMATE","viewport":{"northeast":{"lat":31.1026129802915,"lng":34.9881999802915},"southwest":{"lat":31.0999150197085,"lng":34.98550201970851}}},"partial_match":true,"place_id":"ChIJ59nTLjFEAhURd_rVg8pS-7o","types":["political","sublocality","sublocality_level_1"]}]},"40":{"id":40,"name":"אבו קרינאת מערבית לכסיפה","areaId":299,"geodata":[{"address_components":[{"long_name":"Abu Qreinat (West to Kseifa)","short_name":"Abu Qreinat (West to Kseifa)","types":["political","sublocality","sublocality_level_1"]},{"long_name":"Be'er Sheva","short_name":"Be'er Sheva","types":["administrative_area_level_2","political"]},{"long_name":"South District","short_name":"South District","types":["administrative_area_level_1","political"]},{"long_name":"Israel","short_name":"IL","types":["country","political"]}],"formatted_address":"Abu Qreinat (West to Kseifa), Israel","geometry":{"location":{"lat":31.268995,"lng":35.03005},"location_type":"APPROXIMATE","viewport":{"northeast":{"lat":31.2703439802915,"lng":35.0313989802915},"southwest":{"lat":31.2676460197085,"lng":35.0287010197085}}},"partial_match":true,"place_id":"ChIJ59QdKdJZAhURtbodgkpjbKM","types":["political","sublocality","sublocality_level_1"]}]},"41":{"id":41,"name":"אבו קש","areaId":126,"geodata":[]},"42":{"id":42,"name":"אבו רביעה","areaId":299,"geodata":[{"address_components":[{"long_name":"Abu Rbei'a","short_name":"Abu Rbei'a","types":["political","sublocality","sublocality_level_1"]},{"long_name":"Kseifa","short_name":"Kseifa","types":["locality","political"]},{"long_name":"Be'er Sheva","short_name":"Be'er Sheva","types":["administrative_area_level_2","political"]},{"long_name":"South District","short_name":"South District","types":["administrative_area_level_1","political"]},{"long_name":"Israel","short_name":"IL","types":["country","political"]}],"formatted_address":"Abu Rbei'a, Kseifa, Israel","geometry":{"location":{"lat":31.230811,"lng":35.064209},"location_type":"APPROXIMATE","viewport":{"northeast":{"lat":31.2321599802915,"lng":35.06555798029149},"southwest":{"lat":31.2294620197085,"lng":35.06286001970849}}},"place_id":"ChIJt1o8AzdXAhURGF-oU9KnhhM","types":["political","sublocality","sublocality_level_1"]}]},"43":{"id":43,"name":"אבו רביעה צפונית לכסיפה","areaId":299,"geodata":[{"address_components":[{"long_name":"Abu Rbei'a (North to Kseifa)","short_name":"Abu Rbei'a (North to Kseifa)","types":["political","sublocality","sublocality_level_1"]},{"long_name":"Be'er Sheva","short_name":"Be'er Sheva","types":["administrative_area_level_2","political"]},{"long_name":"South District","short_name":"South District","types":["administrative_area_level_1","political"]},{"long_name":"Israel","short_name":"IL","types":["country","political"]}],"formatted_address":"Abu Rbei'a (North to Kseifa), Israel","geometry":{"location":{"lat":31.282016,"lng":35.039105},"location_type":"APPROXIMATE","viewport":{"northeast":{"lat":31.2833649802915,"lng":35.0404539802915},"southwest":{"lat":31.2806670197085,"lng":35.0377560197085}}},"partial_match":true,"place_id":"ChIJjwPHHohXAhURaq9PQwkE1YI","types":["political","sublocality","sublocality_level_1"]}]},"44":{"id":44,"name":"אבו רוקייק","areaId":287,"geodata":[{"address_components":[{"long_name":"Abu Rukik","short_name":"Abu Rukik","types":["political","sublocality","sublocality_level_1"]},{"long_name":"Be'er Sheva","short_name":"Be'er Sheva","types":["administrative_area_level_2","political"]},{"long_name":"South District","short_name":"South District","types":["administrative_area_level_1","political"]},{"long_name":"Israel","short_name":"IL","types":["country","political"]}],"formatted_address":"Abu Rukik, Israel","geometry":{"location":{"lat":31.25954,"lng":34.863897},"location_type":"APPROXIMATE","viewport":{"northeast":{"lat":31.26088898029149,"lng":34.8652459802915},"southwest":{"lat":31.2581910197085,"lng":34.86254801970851}}},"partial_match":true,"place_id":"ChIJifZmjYldAhURbtEbyyj_rJ0","types":["political","sublocality","sublocality_level_1"]}]},"45":{"id":45,"name":"אבו שח'ידם","areaId":126,"geodata":[]},"46":{"id":46,"name":"אבו תלול","areaId":297,"geodata":[{"address_components":[{"long_name":"Negev","short_name":"Negev","types":["establishment","natural_feature"]},{"long_name":"Be'er Sheva","short_name":"Be'er Sheva","types":["administrative_area_level_2","political"]},{"long_name":"South District","short_name":"South District","types":["administrative_area_level_1","political"]},{"long_name":"Israel","short_name":"IL","types":["country","political"]}],"formatted_address":"Negev","geometry":{"location":{"lat":30.7140861,"lng":34.8757476},"location_type":"APPROXIMATE","viewport":{"northeast":{"lat":30.7154350802915,"lng":34.87709658029149},"southwest":{"lat":30.7127371197085,"lng":34.87439861970849}}},"place_id":"ChIJSU26e6aKARURfWjMVrDpeDQ","types":["establishment","natural_feature"]}]},"47":{"id":47,"name":"אבטין","areaId":71,"geodata":[{"address_components":[{"long_name":"Ibtin","short_name":"Ibtin","types":["locality","political"]},{"long_name":"Haifa","short_name":"Haifa","types":["administrative_area_level_2","political"]},{"long_name":"Haifa District","short_name":"Haifa District","types":["administrative_area_level_1","political"]},{"long_name":"Israel","short_name":"IL","types":["country","political"]}],"formatted_address":"Ibtin, Israel","geometry":{"bounds":{"northeast":{"lat":32.7670039,"lng":35.120144},"southwest":{"lat":32.758608,"lng":35.101317}},"location":{"lat":32.759963,"lng":35.114601},"location_type":"APPROXIMATE","viewport":{"northeast":{"lat":32.7670039,"lng":35.120144},"southwest":{"lat":32.758608,"lng":35.101317}}},"place_id":"ChIJYTdqXp2xHRURKLElc-KfRnU","types":["locality","political"]}]},"48":{"id":48,"name":"אבטליון","areaId":60,"geodata":[{"address_components":[{"long_name":"Avtalion","short_name":"Avtalion","types":["locality","political"]},{"long_name":"Akko","short_name":"Akko","types":["administrative_area_level_2","political"]},{"long_name":"North District","short_name":"North District","types":["administrative_area_level_1","political"]},{"long_name":"Israel","short_name":"IL","types":["country","political"]}],"formatted_address":"Avtalion, Israel","geometry":{"bounds":{"northeast":{"lat":32.8391029,"lng":35.355546},"southwest":{"lat":32.834636,"lng":35.345542}},"location":{"lat":32.835781,"lng":35.350442},"location_type":"APPROXIMATE","viewport":{"northeast":{"lat":32.8391029,"lng":35.355546},"southwest":{"lat":32.834636,"lng":35.345542}}},"place_id":"ChIJ3WSQRqw3HBURRX0xJQpEf-k","types":["locality","political"]}]},"49":{"id":49,"name":"אביאל","areaId":104,"geodata":[{"address_components":[{"long_name":"Avi'el Street","short_name":"Avi'el St","types":["route"]},{"long_name":"Hadera","short_name":"Hadera","types":["locality","political"]},{"long_name":"Hadera","short_name":"Hadera","types":["administrative_area_level_2","political"]},{"long_name":"Haifa District","short_name":"Haifa District","types":["administrative_area_level_1","political"]},{"long_name":"Israel","short_name":"IL","types":["country","political"]}],"formatted_address":"Avi'el St, Hadera, Israel","geometry":{"bounds":{"northeast":{"lat":32.43871,"lng":34.9196445},"southwest":{"lat":32.4384826,"lng":34.918828}},"location":{"lat":32.43871,"lng":34.918828},"location_type":"GEOMETRIC_CENTER","viewport":{"northeast":{"lat":32.4399452802915,"lng":34.9205852302915},"southwest":{"lat":32.4372473197085,"lng":34.9178872697085}}},"partial_match":true,"place_id":"ChIJtUo24UQSHRURpodL3yM8fM4","types":["route"]}]},"50":{"id":50,"name":"אביבים","areaId":22,"geodata":[{"address_components":[{"long_name":"Avivim","short_name":"Avivim","types":["locality","political"]},{"long_name":"Tzfat","short_name":"Tzfat","types":["administrative_area_level_2","political"]},{"long_name":"North District","short_name":"North District","types":["administrative_area_level_1","political"]},{"long_name":"Israel","short_name":"IL","types":["country","political"]}],"formatted_address":"Avivim, Israel","geometry":{"bounds":{"northeast":{"lat":33.0920571,"lng":35.47819},"southwest":{"lat":33.084022,"lng":35.4658649}},"location":{"lat":33.089381,"lng":35.470338},"location_type":"APPROXIMATE","viewport":{"northeast":{"lat":33.0920571,"lng":35.47819},"southwest":{"lat":33.084022,"lng":35.4658649}}},"place_id":"ChIJ3f9J0eSdHhUR6t2Q4NBlwg0","types":["locality","political"]}]},"51":{"id":51,"name":"אביגדור","areaId":275,"geodata":[{"address_components":[{"long_name":"Avigdor","short_name":"Avigdor","types":["locality","political"]},{"long_name":"Ashkelon","short_name":"Ashkelon","types":["administrative_area_level_2","political"]},{"long_name":"South District","short_name":"South District","types":["administrative_area_level_1","political"]},{"long_name":"Israel","short_name":"IL","types":["country","political"]}],"formatted_address":"Avigdor, Israel","geometry":{"bounds":{"northeast":{"lat":31.716258,"lng":34.753423},"southwest":{"lat":31.698325,"lng":34.732111}},"location":{"lat":31.711901,"lng":34.740369},"location_type":"APPROXIMATE","viewport":{"northeast":{"lat":31.716258,"lng":34.753423},"southwest":{"lat":31.698325,"lng":34.732111}}},"place_id":"ChIJR8XxfDCWAhUR_dkg6PJF2dQ","types":["locality","political"]}]},"52":{"id":52,"name":"אביחיל","areaId":138,"geodata":[{"address_components":[{"long_name":"Avihayil","short_name":"Avihayil","types":["locality","political"]},{"long_name":"HaSharon","short_name":"HaSharon","types":["administrative_area_level_2","political"]},{"long_name":"Center District","short_name":"Center District","types":["administrative_area_level_1","political"]},{"long_name":"Israel","short_name":"IL","types":["country","political"]}],"formatted_address":"Avihayil, Israel","geometry":{"bounds":{"northeast":{"lat":32.35794490000001,"lng":34.8783129},"southwest":{"lat":32.344458,"lng":34.862041}},"location":{"lat":32.350708,"lng":34.871229},"location_type":"APPROXIMATE","viewport":{"northeast":{"lat":32.35794490000001,"lng":34.8783129},"southwest":{"lat":32.344458,"lng":34.862041}}},"place_id":"ChIJS_HZMDAVHRURNoGX_HXnxAM","types":["locality","political"]}]},"53":{"id":53,"name":"אביטל","areaId":93,"geodata":[{"address_components":[{"long_name":"Avital","short_name":"Avital","types":["locality","political"]},{"long_name":"Yizrael","short_name":"Yizrael","types":["administrative_area_level_2","political"]},{"long_name":"North District","short_name":"North District","types":["administrative_area_level_1","political"]},{"long_name":"Israel","short_name":"IL","types":["country","political"]}],"formatted_address":"Avital, Israel","geometry":{"bounds":{"northeast":{"lat":32.561688,"lng":35.313419},"southwest":{"lat":32.552772,"lng":35.301412}},"location":{"lat":32.557676,"lng":35.306412},"location_type":"APPROXIMATE","viewport":{"northeast":{"lat":32.561688,"lng":35.313419},"southwest":{"lat":32.552772,"lng":35.301412}}},"place_id":"ChIJp7044p5WHBURFs-vLj8An4s","types":["locality","political"]}]},"54":{"id":54,"name":"אביעזר","areaId":188,"geodata":[{"address_components":[{"long_name":"Aviezer","short_name":"Aviezer","types":["locality","political"]},{"long_name":"Jerusalem District","short_name":"Jerusalem District","types":["administrative_area_level_1","political"]},{"long_name":"Israel","short_name":"IL","types":["country","political"]}],"formatted_address":"Aviezer, Israel","geometry":{"bounds":{"northeast":{"lat":31.684717,"lng":35.0216159},"southwest":{"lat":31.6778309,"lng":35.0095221}},"location":{"lat":31.681996,"lng":35.018821},"location_type":"APPROXIMATE","viewport":{"northeast":{"lat":31.684717,"lng":35.0216159},"southwest":{"lat":31.6778309,"lng":35.0095221}}},"place_id":"ChIJpe1mjyHDAhURXxycqTTUPBs","types":["locality","political"]}]},"55":{"id":55,"name":"אבירים","areaId":17,"geodata":[{"address_components":[{"long_name":"Abirim","short_name":"Abirim","types":["locality","political"]},{"long_name":"Akko","short_name":"Akko","types":["administrative_area_level_2","political"]},{"long_name":"North District","short_name":"North District","types":["administrative_area_level_1","political"]},{"long_name":"Israel","short_name":"IL","types":["country","political"]}],"formatted_address":"Abirim, Israel","geometry":{"bounds":{"northeast":{"lat":33.040845,"lng":35.289811},"southwest":{"lat":33.035904,"lng":35.284044}},"location":{"lat":33.038086,"lng":35.286044},"location_type":"APPROXIMATE","viewport":{"northeast":{"lat":33.040845,"lng":35.289811},"southwest":{"lat":33.035904,"lng":35.284044}}},"place_id":"ChIJ05ePgD4sHBUR7gdqgMocs9I","types":["locality","political"]}]},"56":{"id":56,"name":"אבן יהודה","areaId":142,"geodata":[{"address_components":[{"long_name":"Even Yehuda","short_name":"Even Yehuda","types":["locality","political"]},{"long_name":"HaSharon","short_name":"HaSharon","types":["administrative_area_level_2","political"]},{"long_name":"Center District","short_name":"Center District","types":["administrative_area_level_1","political"]},{"long_name":"Israel","short_name":"IL","types":["country","political"]}],"formatted_address":"Even Yehuda, Israel","geometry":{"bounds":{"northeast":{"lat":32.293833,"lng":34.8971117},"southwest":{"lat":32.241777,"lng":34.8658429}},"location":{"lat":32.276648,"lng":34.885087},"location_type":"APPROXIMATE","viewport":{"northeast":{"lat":32.293833,"lng":34.8971117},"southwest":{"lat":32.241777,"lng":34.8658429}}},"place_id":"ChIJ54VM3XM_HRURVtFg88Uc7AI","types":["locality","political"]}]},"57":{"id":57,"name":"אבן מנחם","areaId":16,"geodata":[{"address_components":[{"long_name":"Even Menachem","short_name":"Even Menachem","types":["locality","political"]},{"long_name":"Akko","short_name":"Akko","types":["administrative_area_level_2","political"]},{"long_name":"North District","short_name":"North District","types":["administrative_area_level_1","political"]},{"long_name":"Israel","short_name":"IL","types":["country","political"]}],"formatted_address":"Even Menachem, Israel","geometry":{"bounds":{"northeast":{"lat":33.0769619,"lng":35.298858},"southwest":{"lat":33.071707,"lng":35.2889979}},"location":{"lat":33.075143,"lng":35.295219},"location_type":"APPROXIMATE","viewport":{"northeast":{"lat":33.0769619,"lng":35.298858},"southwest":{"lat":33.071707,"lng":35.2889979}}},"place_id":"ChIJWY2lGucrHBURDHaIbm4-qMg","types":["locality","political"]}]},"58":{"id":58,"name":"אבן ספיר","areaId":191,"geodata":[{"address_components":[{"long_name":"Israel National Trail","short_name":"Israel National Trail","types":["route"]}],"formatted_address":"Israel National Trail","geometry":{"bounds":{"northeast":{"lat":33.2506242,"lng":35.657397},"southwest":{"lat":29.5088516,"lng":34.7388949}},"location":{"lat":31.3409594,"lng":35.1009942},"location_type":"GEOMETRIC_CENTER","viewport":{"northeast":{"lat":33.2506242,"lng":35.657397},"southwest":{"lat":29.5088516,"lng":34.7388949}}},"partial_match":true,"place_id":"ChIJdRQCC579AhURMMBo17qwX20","types":["route"]}]},"59":{"id":59,"name":"אבן שמואל","areaId":281,"geodata":[{"address_components":[{"long_name":"Even Shmuel","short_name":"Even Shmuel","types":["locality","political"]},{"long_name":"Ashkelon","short_name":"Ashkelon","types":["administrative_area_level_2","political"]},{"long_name":"South District","short_name":"South District","types":["administrative_area_level_1","political"]},{"long_name":"Israel","short_name":"IL","types":["country","political"]}],"formatted_address":"Even Shmuel, Israel","geometry":{"bounds":{"northeast":{"lat":31.579235,"lng":34.770714},"southwest":{"lat":31.571195,"lng":34.7596141}},"location":{"lat":31.576429,"lng":34.762963},"location_type":"APPROXIMATE","viewport":{"northeast":{"lat":31.579235,"lng":34.770714},"southwest":{"lat":31.571195,"lng":34.7596141}}},"place_id":"ChIJOdn1V-2RAhURhdCul0vD0Z8","types":["locality","political"]}]},"60":{"id":60,"name":"אבני איתן","areaId":2,"geodata":[{"address_components":[{"long_name":"Avnei Eitan","short_name":"Avnei Eitan","types":["locality","political"]}],"formatted_address":"Avnei Eitan","geometry":{"bounds":{"northeast":{"lat":32.831008,"lng":35.7741111},"southwest":{"lat":32.8155,"lng":35.758581}},"location":{"lat":32.824808,"lng":35.765777},"location_type":"APPROXIMATE","viewport":{"northeast":{"lat":32.831008,"lng":35.7741111},"southwest":{"lat":32.8155,"lng":35.758581}}},"partial_match":true,"place_id":"ChIJY8P06GEFHBURXFt--FTpM9U","types":["locality","political"]}]},"61":{"id":61,"name":"אבני חפץ","areaId":120,"geodata":[{"address_components":[{"long_name":"Avnei Hefets","short_name":"Avnei Hefets","types":["locality","political"]}],"formatted_address":"Avnei Hefets","geometry":{"bounds":{"northeast":{"lat":32.291736,"lng":35.082964},"southwest":{"lat":32.281391,"lng":35.067144}},"location":{"lat":32.284628,"lng":35.074551},"location_type":"APPROXIMATE","viewport":{"northeast":{"lat":32.291736,"lng":35.082964},"southwest":{"lat":32.281391,"lng":35.067144}}},"partial_match":true,"place_id":"ChIJUb-XAFsYHRURLoNJu609jOw","types":["locality","political"]}]},"62":{"id":62,"name":"אבנת","areaId":210,"geodata":[{"address_components":[{"long_name":"Ovnat","short_name":"Ovnat","types":["locality","political"]}],"formatted_address":"Ovnat","geometry":{"bounds":{"northeast":{"lat":31.681488,"lng":35.439083},"southwest":{"lat":31.676556,"lng":35.434083}},"location":{"lat":31.679039,"lng":35.436945},"location_type":"APPROXIMATE","viewport":{"northeast":{"lat":31.681488,"lng":35.439083},"southwest":{"lat":31.676556,"lng":35.434083}}},"place_id":"ChIJnxdenokwAxURzsQxmmNeRFc","types":["locality","political"]}]},"63":{"id":63,"name":"אבשלום","areaId":238,"geodata":[{"address_components":[{"long_name":"Avshalom","short_name":"Avshalom","types":["locality","political"]},{"long_name":"Be'er Sheva","short_name":"Be'er Sheva","types":["administrative_area_level_2","political"]},{"long_name":"South District","short_name":"South District","types":["administrative_area_level_1","political"]},{"long_name":"Israel","short_name":"IL","types":["country","political"]}],"formatted_address":"Avshalom, Israel","geometry":{"bounds":{"northeast":{"lat":31.1978189,"lng":34.33481},"southwest":{"lat":31.1919371,"lng":34.3283011}},"location":{"lat":31.195397,"lng":34.3312},"location_type":"APPROXIMATE","viewport":{"northeast":{"lat":31.1978189,"lng":34.33481},"southwest":{"lat":31.1919371,"lng":34.3283011}}},"place_id":"ChIJIan9iqfy_RQRFYjTCQpNilw","types":["locality","political"]}]},"64":{"id":64,"name":"אדורה","areaId":207,"geodata":[{"address_components":[{"long_name":"Adora","short_name":"Adora","types":["locality","political"]}],"formatted_address":"Adora","geometry":{"bounds":{"northeast":{"lat":31.5551779,"lng":35.0237089},"southwest":{"lat":31.54889,"lng":35.013582}},"location":{"lat":31.552219,"lng":35.017634},"location_type":"APPROXIMATE","viewport":{"northeast":{"lat":31.5551779,"lng":35.0237089},"southwest":{"lat":31.54889,"lng":35.013582}}},"partial_match":true,"place_id":"ChIJZ1PS70nvAhURnY8BOn8WkK4","types":["locality","political"]}]},"65":{"id":65,"name":"אדירים","areaId":93,"geodata":[{"address_components":[{"long_name":"Adirim","short_name":"Adirim","types":["locality","political"]},{"long_name":"Yizrael","short_name":"Yizrael","types":["administrative_area_level_2","political"]},{"long_name":"North District","short_name":"North District","types":["administrative_area_level_1","political"]},{"long_name":"Israel","short_name":"IL","types":["country","political"]}],"formatted_address":"Adirim, Israel","geometry":{"bounds":{"northeast":{"lat":32.554021,"lng":35.277638},"southwest":{"lat":32.54436990000001,"lng":35.2669981}},"location":{"lat":32.54894100000001,"lng":35.271637},"location_type":"APPROXIMATE","viewport":{"northeast":{"lat":32.554021,"lng":35.277638},"southwest":{"lat":32.54436990000001,"lng":35.2669981}}},"place_id":"ChIJxygMWbJVHBURUj-oN2ANBHs","types":["locality","political"]}]},"66":{"id":66,"name":"אדמית","areaId":15,"geodata":[{"address_components":[{"long_name":"Adamit","short_name":"Adamit","types":["locality","political"]},{"long_name":"Akko","short_name":"Akko","types":["administrative_area_level_2","political"]},{"long_name":"North District","short_name":"North District","types":["administrative_area_level_1","political"]},{"long_name":"Israel","short_name":"IL","types":["country","political"]}],"formatted_address":"Adamit, Israel","geometry":{"bounds":{"northeast":{"lat":33.081365,"lng":35.216692},"southwest":{"lat":33.076936,"lng":35.202116}},"location":{"lat":33.078842,"lng":35.20951},"location_type":"APPROXIMATE","viewport":{"northeast":{"lat":33.081365,"lng":35.216692},"southwest":{"lat":33.076936,"lng":35.202116}}},"place_id":"ChIJNYLT31PTHRURPDSQInZ6IMM","types":["locality","political"]}]},"67":{"id":67,"name":"אדרת","areaId":188,"geodata":[{"address_components":[{"long_name":"Aderet","short_name":"Aderet","types":["locality","political"]},{"long_name":"Jerusalem District","short_name":"Jerusalem District","types":["administrative_area_level_1","political"]},{"long_name":"Israel","short_name":"IL","types":["country","political"]}],"formatted_address":"Aderet, Israel","geometry":{"bounds":{"northeast":{"lat":31.6646869,"lng":34.9991601},"southwest":{"lat":31.655424,"lng":34.9902781}},"location":{"lat":31.659715,"lng":34.99444},"location_type":"APPROXIMATE","viewport":{"northeast":{"lat":31.6646869,"lng":34.9991601},"southwest":{"lat":31.655424,"lng":34.9902781}}},"place_id":"ChIJG4WvBmLCAhURpxRSnxFQ1dU","types":["locality","political"]}]},"68":{"id":68,"name":"אודים","areaId":142,"geodata":[{"address_components":[{"long_name":"Udim","short_name":"Udim","types":["locality","political"]},{"long_name":"HaSharon","short_name":"HaSharon","types":["administrative_area_level_2","political"]},{"long_name":"Center District","short_name":"Center District","types":["administrative_area_level_1","political"]},{"long_name":"Israel","short_name":"IL","types":["country","political"]}],"formatted_address":"Udim, Israel","geometry":{"bounds":{"northeast":{"lat":32.272656,"lng":34.861364},"southwest":{"lat":32.257043,"lng":34.8381331}},"location":{"lat":32.266865,"lng":34.846995},"location_type":"APPROXIMATE","viewport":{"northeast":{"lat":32.272656,"lng":34.861364},"southwest":{"lat":32.257043,"lng":34.8381331}}},"partial_match":true,"place_id":"ChIJZaSZNrxAHRURCvQJF3wC7to","types":["locality","political"]}]},"69":{"id":69,"name":"אודלה","areaId":120,"geodata":[]},"70":{"id":70,"name":"אודם","areaId":1,"geodata":[{"address_components":[{"long_name":"Odem","short_name":"Odem","types":["locality","political"]}],"formatted_address":"Odem","geometry":{"bounds":{"northeast":{"lat":33.198066,"lng":35.7532059},"southwest":{"lat":33.190618,"lng":35.7449891}},"location":{"lat":33.1933716,"lng":35.7495651},"location_type":"APPROXIMATE","viewport":{"northeast":{"lat":33.198066,"lng":35.7532059},"southwest":{"lat":33.190618,"lng":35.7449891}}},"partial_match":true,"place_id":"ChIJbfnEO5uwHhURBbuloARYbWE","types":["locality","political"]}]},"71":{"id":71,"name":"אוהד","areaId":234,"geodata":[{"address_components":[{"long_name":"Ohad","short_name":"Ohad","types":["locality","political"]},{"long_name":"Be'er Sheva","short_name":"Be'er Sheva","types":["administrative_area_level_2","political"]},{"long_name":"South District","short_name":"South District","types":["administrative_area_level_1","political"]},{"long_name":"Israel","short_name":"IL","types":["country","political"]}],"formatted_address":"Ohad, Israel","geometry":{"bounds":{"northeast":{"lat":31.2421859,"lng":34.436287},"southwest":{"lat":31.233173,"lng":34.4279199}},"location":{"lat":31.238436,"lng":34.431893},"location_type":"APPROXIMATE","viewport":{"northeast":{"lat":31.2421859,"lng":34.436287},"southwest":{"lat":31.233173,"lng":34.4279199}}},"place_id":"ChIJV62Wbu2L_RQRdT59taaxCxc","types":["locality","political"]}]},"72":{"id":72,"name":"אוהלו","areaId":98,"geodata":[]},"73":{"id":73,"name":"אום א טלע","areaId":200,"geodata":[{"address_components":[{"long_name":"Umm al-Tala'","short_name":"Umm al-Tala'","types":["locality","political"]}],"formatted_address":"Umm al-Tala'","geometry":{"location":{"lat":31.696829,"lng":35.262868},"location_type":"APPROXIMATE","viewport":{"northeast":{"lat":31.6981779802915,"lng":35.2642169802915},"southwest":{"lat":31.6954800197085,"lng":35.2615190197085}}},"partial_match":true,"place_id":"ChIJ069wv0smAxURCzj9n-2__Js","types":["locality","political"]}]},"74":{"id":74,"name":"אום א סח'אלי","areaId":63,"geodata":[{"address_components":[{"long_name":"Um e-Sakhali","short_name":"Um e-Sakhali","types":["political","sublocality","sublocality_level_1"]},{"long_name":"Akko","short_name":"Akko","types":["administrative_area_level_2","political"]},{"long_name":"North District","short_name":"North District","types":["administrative_area_level_1","political"]},{"long_name":"Israel","short_name":"IL","types":["country","political"]}],"formatted_address":"Um e-Sakhali, Israel","geometry":{"location":{"lat":32.77055,"lng":35.177513},"location_type":"APPROXIMATE","viewport":{"northeast":{"lat":32.7718989802915,"lng":35.1788619802915},"southwest":{"lat":32.7692010197085,"lng":35.1761640197085}}},"partial_match":true,"place_id":"ChIJXfe9E3qzHRURUYjFcbt8w08","types":["political","sublocality","sublocality_level_1"]}]},"75":{"id":75,"name":"אום א ריחאן","areaId":118,"geodata":[{"address_components":[{"long_name":"Umm al-Rihan","short_name":"Umm al-Rihan","types":["locality","political"]}],"formatted_address":"Umm al-Rihan","geometry":{"location":{"lat":32.484555,"lng":35.141189},"location_type":"APPROXIMATE","viewport":{"northeast":{"lat":32.4859039802915,"lng":35.14253798029149},"southwest":{"lat":32.4832060197085,"lng":35.1398400197085}}},"partial_match":true,"place_id":"ChIJqZnw0kQBHRURZsbXHR1hHSs","types":["locality","political"]}]},"76":{"id":76,"name":"אום א תות","areaId":119,"geodata":[{"address_components":[{"long_name":"Umm al-Tut","short_name":"Umm al-Tut","types":["locality","political"]}],"formatted_address":"Umm al-Tut","geometry":{"location":{"lat":32.431732,"lng":35.344147},"location_type":"APPROXIMATE","viewport":{"northeast":{"lat":32.43308098029149,"lng":35.3454959802915},"southwest":{"lat":32.4303830197085,"lng":35.3427980197085}}},"partial_match":true,"place_id":"ChIJAYch_wr5HBURJXgkpk2159A","types":["locality","political"]}]},"77":{"id":77,"name":"אום אל פחם","areaId":113,"geodata":[{"address_components":[{"long_name":"Wadi Ara","short_name":"Wadi Ara","types":["establishment","natural_feature"]},{"long_name":"Hadera","short_name":"Hadera","types":["administrative_area_level_2","political"]},{"long_name":"Haifa District","short_name":"Haifa District","types":["administrative_area_level_1","political"]},{"long_name":"Israel","short_name":"IL","types":["country","political"]}],"formatted_address":"Wadi Ara","geometry":{"bounds":{"northeast":{"lat":32.499598,"lng":35.06412},"southwest":{"lat":32.441972,"lng":34.998641}},"location":{"lat":32.470785,"lng":35.0313805},"location_type":"APPROXIMATE","viewport":{"northeast":{"lat":32.499598,"lng":35.06412},"southwest":{"lat":32.441972,"lng":34.998641}}},"place_id":"ChIJlfdec-8FHRUReXbHg_KkxA4","types":["establishment","natural_feature"]}]},"78":{"id":78,"name":"אום אל קוטוף","areaId":112,"geodata":[{"address_components":[{"long_name":"Wadi Ara","short_name":"Wadi Ara","types":["establishment","natural_feature"]},{"long_name":"Hadera","short_name":"Hadera","types":["administrative_area_level_2","political"]},{"long_name":"Haifa District","short_name":"Haifa District","types":["administrative_area_level_1","political"]},{"long_name":"Israel","short_name":"IL","types":["country","political"]}],"formatted_address":"Wadi Ara","geometry":{"bounds":{"northeast":{"lat":32.499598,"lng":35.06412},"southwest":{"lat":32.441972,"lng":34.998641}},"location":{"lat":32.470785,"lng":35.0313805},"location_type":"APPROXIMATE","viewport":{"northeast":{"lat":32.499598,"lng":35.06412},"southwest":{"lat":32.441972,"lng":34.998641}}},"place_id":"ChIJlfdec-8FHRUReXbHg_KkxA4","types":["establishment","natural_feature"]}]},"79":{"id":79,"name":"אום דאר","areaId":118,"geodata":[{"address_components":[{"long_name":"Umm Dar","short_name":"Umm Dar","types":["locality","political"]}],"formatted_address":"Umm Dar","geometry":{"location":{"lat":32.457529,"lng":35.138167},"location_type":"APPROXIMATE","viewport":{"northeast":{"lat":32.4588779802915,"lng":35.13951598029149},"southwest":{"lat":32.4561800197085,"lng":35.13681801970849}}},"partial_match":true,"place_id":"ChIJA9SzfO0DHRURPyArledz3RM","types":["locality","political"]}]},"80":{"id":80,"name":"אום סלמונה","areaId":200,"geodata":[{"address_components":[{"long_name":"Yehuda Street","short_name":"Yehuda St","types":["route"]},{"long_name":"El'azar","short_name":"El'azar","types":["locality","political"]}],"formatted_address":"Yehuda St, El'azar","geometry":{"bounds":{"northeast":{"lat":31.6600166,"lng":35.144935},"southwest":{"lat":31.659455,"lng":35.1430865}},"location":{"lat":31.6596524,"lng":35.1440564},"location_type":"GEOMETRIC_CENTER","viewport":{"northeast":{"lat":31.6610847802915,"lng":35.1453597302915},"southwest":{"lat":31.6583868197085,"lng":35.1426617697085}}},"partial_match":true,"place_id":"ChIJoc8lcL7eAhURksdJh8DELrE","types":["route"]},{"address_components":[{"long_name":"Umm Salmuna","short_name":"Umm Salmuna","types":["locality","political"]}],"formatted_address":"Umm Salmuna","geometry":{"location":{"lat":31.645665,"lng":35.165229},"location_type":"APPROXIMATE","viewport":{"northeast":{"lat":31.6470139802915,"lng":35.16657798029149},"southwest":{"lat":31.6443160197085,"lng":35.1638800197085}}},"partial_match":true,"place_id":"ChIJCUNRCOTeAhURxnpG4xfG8CU","types":["locality","political"]}]},"81":{"id":81,"name":"אום ספא","areaId":124,"geodata":[]},"82":{"id":82,"name":"אום עלאס","areaId":188,"geodata":[{"address_components":[{"long_name":"Umm 'Allas","short_name":"Umm 'Allas","types":["locality","political"]}],"formatted_address":"Umm 'Allas","geometry":{"location":{"lat":31.602078,"lng":35.012471},"location_type":"APPROXIMATE","viewport":{"northeast":{"lat":31.6034269802915,"lng":35.01381998029149},"southwest":{"lat":31.6007290197085,"lng":35.0111220197085}}},"partial_match":true,"place_id":"ChIJCfUI317oAhURVUFEGqE7Nyw","types":["locality","political"]}]},"83":{"id":83,"name":"אום עסלה","areaId":200,"geodata":[{"address_components":[{"long_name":"Umm 'Asala","short_name":"Umm 'Asala","types":["locality","political"]}],"formatted_address":"Umm 'Asala","geometry":{"location":{"lat":31.699141,"lng":35.281913},"location_type":"APPROXIMATE","viewport":{"northeast":{"lat":31.7004899802915,"lng":35.28326198029149},"southwest":{"lat":31.6977920197085,"lng":35.28056401970849}}},"partial_match":true,"place_id":"ChIJKeoQ4RUmAxURc_2muz709n4","types":["locality","political"]}]},"84":{"id":84,"name":"אומן","areaId":93,"geodata":[{"address_components":[{"long_name":"Merkaz Omen","short_name":"Merkaz Omen","types":["locality","political"]},{"long_name":"Yizrael","short_name":"Yizrael","types":["administrative_area_level_2","political"]},{"long_name":"North District","short_name":"North District","types":["administrative_area_level_1","political"]},{"long_name":"Israel","short_name":"IL","types":["country","political"]}],"formatted_address":"Merkaz Omen, Israel","geometry":{"bounds":{"northeast":{"lat":32.567374,"lng":35.245736},"southwest":{"lat":32.559533,"lng":35.23922390000001}},"location":{"lat":32.564279,"lng":35.241941},"location_type":"APPROXIMATE","viewport":{"northeast":{"lat":32.567374,"lng":35.245736},"southwest":{"lat":32.559533,"lng":35.23922390000001}}},"place_id":"ChIJxXivZOFUHBURbu5zo5fxJJ4","types":["locality","political"]}]},"85":{"id":85,"name":"אומץ","areaId":149,"geodata":[{"address_components":[{"long_name":"Ometz","short_name":"Ometz","types":["locality","political"]},{"long_name":"HaSharon","short_name":"HaSharon","types":["administrative_area_level_2","political"]},{"long_name":"Center District","short_name":"Center District","types":["administrative_area_level_1","political"]},{"long_name":"Israel","short_name":"IL","types":["country","political"]}],"formatted_address":"Ometz, Israel","geometry":{"bounds":{"northeast":{"lat":32.3761051,"lng":35.002088},"southwest":{"lat":32.3632069,"lng":34.9844819}},"location":{"lat":32.369216,"lng":34.993129},"location_type":"APPROXIMATE","viewport":{"northeast":{"lat":32.3761051,"lng":35.002088},"southwest":{"lat":32.3632069,"lng":34.9844819}}},"place_id":"ChIJV3HsvikRHRURKvzLdPY5JsA","types":["locality","political"]}]},"86":{"id":86,"name":"אופקים","areaId":288,"geodata":[{"address_components":[{"long_name":"Ofakim Train Station","short_name":"Ofakim Train Station","types":["establishment","point_of_interest"]},{"long_name":"Ofakim","short_name":"Ofakim","types":["locality","political"]},{"long_name":"Be'er Sheva","short_name":"Be'er Sheva","types":["administrative_area_level_2","political"]},{"long_name":"South District","short_name":"South District","types":["administrative_area_level_1","political"]},{"long_name":"","short_name":"IL","types":["country","political"]}],"formatted_address":"Ofakim Train Station, Ofakim, Israel","geometry":{"location":{"lat":31.321903,"lng":34.633271},"location_type":"APPROXIMATE","viewport":{"northeast":{"lat":31.3232519802915,"lng":34.6346199802915},"southwest":{"lat":31.3205540197085,"lng":34.6319220197085}}},"place_id":"ChIJ90Gqia57AhURLH8OFMO3atA","types":["bus_station","establishment","point_of_interest","transit_station"]}]},"87":{"id":87,"name":"אור הגנוז","areaId":44,"geodata":[{"address_components":[{"long_name":"Or HaGanuz","short_name":"Or HaGanuz","types":["locality","political"]},{"long_name":"Tzfat","short_name":"Tzfat","types":["administrative_area_level_2","political"]},{"long_name":"North District","short_name":"North District","types":["administrative_area_level_1","political"]},{"long_name":"Israel","short_name":"IL","types":["country","political"]}],"formatted_address":"Or HaGanuz, Israel","geometry":{"bounds":{"northeast":{"lat":33.007214,"lng":35.4509711},"southwest":{"lat":33.0018471,"lng":35.4421669}},"location":{"lat":33.005183,"lng":35.446736},"location_type":"APPROXIMATE","viewport":{"northeast":{"lat":33.007214,"lng":35.4509711},"southwest":{"lat":33.0018471,"lng":35.4421669}}},"partial_match":true,"place_id":"ChIJr6M8SCYkHBUREqf1u68fJ8g","types":["locality","political"]}]},"88":{"id":88,"name":"אור הנר","areaId":219,"geodata":[{"address_components":[{"long_name":"Or HaNer","short_name":"Or HaNer","types":["locality","political"]},{"long_name":"Ashkelon","short_name":"Ashkelon","types":["administrative_area_level_2","political"]},{"long_name":"South District","short_name":"South District","types":["administrative_area_level_1","political"]},{"long_name":"Israel","short_name":"IL","types":["country","political"]}],"formatted_address":"Or HaNer, Israel","geometry":{"bounds":{"northeast":{"lat":31.5609381,"lng":34.6070921},"southwest":{"lat":31.554657,"lng":34.594371}},"location":{"lat":31.556197,"lng":34.602305},"location_type":"APPROXIMATE","viewport":{"northeast":{"lat":31.5609381,"lng":34.6070921},"southwest":{"lat":31.554657,"lng":34.594371}}},"place_id":"ChIJLZKoVneEAhUR9hqUp_mN_gk","types":["locality","political"]}]},"89":{"id":89,"name":"אור יהודה","areaId":161,"geodata":[{"address_components":[{"long_name":"Shaike Dan Street","short_name":"Shaike Dan St","types":["route"]},{"long_name":"Tel Aviv-Yafo","short_name":"Tel Aviv-Yafo","types":["locality","political"]},{"long_name":"Tel Aviv District","short_name":"Tel Aviv District","types":["administrative_area_level_1","political"]},{"long_name":"Israel","short_name":"IL","types":["country","political"]}],"formatted_address":"Shaike Dan St, Tel Aviv-Yafo, Israel","geometry":{"bounds":{"northeast":{"lat":32.0484265,"lng":34.8058967},"southwest":{"lat":32.0458949,"lng":34.8056571}},"location":{"lat":32.0470865,"lng":34.8058506},"location_type":"GEOMETRIC_CENTER","viewport":{"northeast":{"lat":32.0485096802915,"lng":34.8071258802915},"southwest":{"lat":32.0458117197085,"lng":34.8044279197085}}},"partial_match":true,"place_id":"ChIJH2JDFRdLHRUR9SyXeGkMc-U","types":["route"]},{"address_components":[{"long_name":"Dan Street","short_name":"Dan St","types":["route"]},{"long_name":"Giv'atayim","short_name":"Giv'atayim","types":["locality","political"]},{"long_name":"Tel Aviv District","short_name":"Tel Aviv District","types":["administrative_area_level_1","political"]},{"long_name":"Israel","short_name":"IL","types":["country","political"]}],"formatted_address":"Dan St, Giv'atayim, Israel","geometry":{"bounds":{"northeast":{"lat":32.071665,"lng":34.818109},"southwest":{"lat":32.071616,"lng":34.817433}},"location":{"lat":32.0716409,"lng":34.817765},"location_type":"GEOMETRIC_CENTER","viewport":{"northeast":{"lat":32.0729894802915,"lng":34.8191199802915},"southwest":{"lat":32.0702915197085,"lng":34.8164220197085}}},"partial_match":true,"place_id":"ChIJv6ex0bJLHRURKkPKuqe30d4","types":["route"]}]},"90":{"id":90,"name":"אור עקיבא","areaId":105,"geodata":[{"address_components":[{"long_name":"Harei Menashe Street","short_name":"Harei Menashe St","types":["route"]},{"long_name":"Or Akiva","short_name":"Or Akiva","types":["locality","political"]},{"long_name":"Hadera","short_name":"Hadera","types":["administrative_area_level_2","political"]},{"long_name":"Haifa District","short_name":"Haifa District","types":["administrative_area_level_1","political"]},{"long_name":"Israel","short_name":"IL","types":["country","political"]}],"formatted_address":"Harei Menashe St, Or Akiva, Israel","geometry":{"bounds":{"northeast":{"lat":32.5213881,"lng":34.9164669},"southwest":{"lat":32.5213128,"lng":34.9152543}},"location":{"lat":32.5213814,"lng":34.9161259},"location_type":"GEOMETRIC_CENTER","viewport":{"northeast":{"lat":32.5226994302915,"lng":34.9172095802915},"southwest":{"lat":32.5200014697085,"lng":34.9145116197085}}},"partial_match":true,"place_id":"ChIJD57QnVwMHRUR4NLrTEGmCPo","types":["route"]}]},"91":{"id":91,"name":"אורה","areaId":191,"geodata":[{"address_components":[{"long_name":"Ora","short_name":"Ora","types":["locality","political"]},{"long_name":"Jerusalem District","short_name":"Jerusalem District","types":["administrative_area_level_1","political"]},{"long_name":"Israel","short_name":"IL","types":["country","political"]}],"formatted_address":"Ora, Israel","geometry":{"bounds":{"northeast":{"lat":31.7606649,"lng":35.1605759},"southwest":{"lat":31.744027,"lng":35.1446719}},"location":{"lat":31.752109,"lng":35.150165},"location_type":"APPROXIMATE","viewport":{"northeast":{"lat":31.7606649,"lng":35.1605759},"southwest":{"lat":31.744027,"lng":35.1446719}}},"place_id":"ChIJ5SxoFd7ZAhURIAohOUC3v60","types":["locality","political"]}]},"92":{"id":92,"name":"אורון","areaId":301,"geodata":[{"address_components":[{"long_name":"Negev","short_name":"Negev","types":["establishment","natural_feature"]},{"long_name":"Be'er Sheva","short_name":"Be'er Sheva","types":["administrative_area_level_2","political"]},{"long_name":"South District","short_name":"South District","types":["administrative_area_level_1","political"]},{"long_name":"Israel","short_name":"IL","types":["country","political"]}],"formatted_address":"Negev","geometry":{"location":{"lat":30.7140861,"lng":34.8757476},"location_type":"APPROXIMATE","viewport":{"northeast":{"lat":30.7154350802915,"lng":34.87709658029149},"southwest":{"lat":30.7127371197085,"lng":34.87439861970849}}},"place_id":"ChIJSU26e6aKARURfWjMVrDpeDQ","types":["establishment","natural_feature"]}]},"93":{"id":93,"name":"אורות","areaId":275,"geodata":[{"address_components":[{"long_name":"Orot","short_name":"Orot","types":["locality","political"]},{"long_name":"Ashkelon","short_name":"Ashkelon","types":["administrative_area_level_2","political"]},{"long_name":"South District","short_name":"South District","types":["administrative_area_level_1","political"]},{"long_name":"Israel","short_name":"IL","types":["country","political"]}],"formatted_address":"Orot, Israel","geometry":{"bounds":{"northeast":{"lat":31.747755,"lng":34.7412021},"southwest":{"lat":31.735864,"lng":34.7264511}},"location":{"lat":31.740364,"lng":34.7356},"location_type":"APPROXIMATE","viewport":{"northeast":{"lat":31.747755,"lng":34.7412021},"southwest":{"lat":31.735864,"lng":34.7264511}}},"place_id":"ChIJt2Us-Zu9AhURlMoekXS0TcU","types":["locality","political"]}]},"94":{"id":94,"name":"אורטל","areaId":3,"geodata":[{"address_components":[{"long_name":"Ortal","short_name":"Ortal","types":["locality","political"]}],"formatted_address":"Ortal","geometry":{"bounds":{"northeast":{"lat":33.092258,"lng":35.764046},"southwest":{"lat":33.082694,"lng":35.7543521}},"location":{"lat":33.086236,"lng":35.758661},"location_type":"APPROXIMATE","viewport":{"northeast":{"lat":33.092258,"lng":35.764046},"southwest":{"lat":33.082694,"lng":35.7543521}}},"place_id":"ChIJpTo6uWuvHhURwzgG4hURsIA","types":["locality","political"]}]},"95":{"id":95,"name":"אורים","areaId":256,"geodata":[{"address_components":[{"long_name":"Ha-Urim Street","short_name":"Ha-Urim St","types":["route"]},{"long_name":"Ashkelon","short_name":"Ashkelon","types":["locality","political"]},{"long_name":"Ashkelon","short_name":"Ashkelon","types":["administrative_area_level_2","political"]},{"long_name":"South District","short_name":"South District","types":["administrative_area_level_1","political"]},{"long_name":"Israel","short_name":"IL","types":["country","political"]}],"formatted_address":"Ha-Urim St, Ashkelon, Israel","geometry":{"bounds":{"northeast":{"lat":31.666098,"lng":34.5931681},"southwest":{"lat":31.6648569,"lng":34.5918664}},"location":{"lat":31.6651719,"lng":34.5922117},"location_type":"GEOMETRIC_CENTER","viewport":{"northeast":{"lat":31.66682643029149,"lng":34.5938662302915},"southwest":{"lat":31.6641284697085,"lng":34.5911682697085}}},"place_id":"ChIJGedTDnScAhURSslqdlY8DuA","types":["route"]}]},"96":{"id":96,"name":"אורנים","areaId":86,"geodata":[{"address_components":[{"long_name":"Oranim Street","short_name":"Oranim St","types":["route"]},{"long_name":"Afula","short_name":"Afula","types":["locality","political"]},{"long_name":"Yizrael","short_name":"Yizrael","types":["administrative_area_level_2","political"]},{"long_name":"North District","short_name":"North District","types":["administrative_area_level_1","political"]},{"long_name":"Israel","short_name":"IL","types":["country","political"]}],"formatted_address":"Oranim St, Afula, Israel","geometry":{"bounds":{"northeast":{"lat":32.6156037,"lng":35.2867727},"southwest":{"lat":32.610172,"lng":35.282771}},"location":{"lat":32.61286,"lng":35.284912},"location_type":"GEOMETRIC_CENTER","viewport":{"northeast":{"lat":32.6156037,"lng":35.2867727},"southwest":{"lat":32.610172,"lng":35.282771}}},"place_id":"ChIJWW88wMZTHBURm3b4IAPN6Hk","types":["route"]}]},"97":{"id":97,"name":"אורנית","areaId":143,"geodata":[{"address_components":[{"long_name":"HaOranit Street","short_name":"HaOranit St","types":["route"]},{"long_name":"Tel Mond","short_name":"Tel Mond","types":["locality","political"]},{"long_name":"HaSharon","short_name":"HaSharon","types":["administrative_area_level_2","political"]},{"long_name":"Center District","short_name":"Center District","types":["administrative_area_level_1","political"]},{"long_name":"Israel","short_name":"IL","types":["country","political"]}],"formatted_address":"HaOranit St, Tel Mond, Israel","geometry":{"bounds":{"northeast":{"lat":32.2518213,"lng":34.9197127},"southwest":{"lat":32.250175,"lng":34.9188983}},"location":{"lat":32.2509328,"lng":34.9193926},"location_type":"GEOMETRIC_CENTER","viewport":{"northeast":{"lat":32.2523471302915,"lng":34.9206544802915},"southwest":{"lat":32.2496491697085,"lng":34.9179565197085}}},"partial_match":true,"place_id":"ChIJix6jxeg-HRURVtdav6Do6Yo","types":["route"]}]},"98":{"id":98,"name":"אושה","areaId":71,"geodata":[{"address_components":[{"long_name":"Usha Street","short_name":"Usha St","types":["route"]},{"long_name":"Haifa","short_name":"Haifa","types":["administrative_area_level_2","political"]},{"long_name":"Haifa District","short_name":"Haifa District","types":["administrative_area_level_1","political"]},{"long_name":"Israel","short_name":"IL","types":["country","political"]}],"formatted_address":"Usha St, Israel","geometry":{"bounds":{"northeast":{"lat":32.827585,"lng":35.0885606},"southwest":{"lat":32.8185003,"lng":35.076181}},"location":{"lat":32.8218946,"lng":35.0818009},"location_type":"GEOMETRIC_CENTER","viewport":{"northeast":{"lat":32.827585,"lng":35.0885606},"southwest":{"lat":32.8185003,"lng":35.076181}}},"partial_match":true,"place_id":"ChIJK7646ia3HRUR0ALxc42xo-s","types":["route"]}]},"99":{"id":99,"name":"אזור","areaId":162,"geodata":[{"address_components":[{"long_name":"Shaike Dan Street","short_name":"Shaike Dan St","types":["route"]},{"long_name":"Tel Aviv-Yafo","short_name":"Tel Aviv-Yafo","types":["locality","political"]},{"long_name":"Tel Aviv District","short_name":"Tel Aviv District","types":["administrative_area_level_1","political"]},{"long_name":"Israel","short_name":"IL","types":["country","political"]}],"formatted_address":"Shaike Dan St, Tel Aviv-Yafo, Israel","geometry":{"bounds":{"northeast":{"lat":32.0484265,"lng":34.8058967},"southwest":{"lat":32.0458949,"lng":34.8056571}},"location":{"lat":32.0470865,"lng":34.8058506},"location_type":"GEOMETRIC_CENTER","viewport":{"northeast":{"lat":32.0485096802915,"lng":34.8071258802915},"southwest":{"lat":32.0458117197085,"lng":34.8044279197085}}},"partial_match":true,"place_id":"ChIJH2JDFRdLHRUR9SyXeGkMc-U","types":["route"]},{"address_components":[{"long_name":"Shaik'e Dan Street","short_name":"Shaik'e Dan St","types":["route"]},{"long_name":"Rishon LeTsiyon","short_name":"ראשל\"צ","types":["locality","political"]},{"long_name":"Rehovot","short_name":"Rehovot","types":["administrative_area_level_2","political"]},{"long_name":"Center District","short_name":"Center District","types":["administrative_area_level_1","political"]},{"long_name":"Israel","short_name":"IL","types":["country","political"]}],"formatted_address":"Shaik'e Dan St, Rishon LeTsiyon, Israel","geometry":{"bounds":{"northeast":{"lat":31.9953449,"lng":34.7771993},"southwest":{"lat":31.9907443,"lng":34.7672882}},"location":{"lat":31.9933177,"lng":34.7726274},"location_type":"GEOMETRIC_CENTER","viewport":{"northeast":{"lat":31.9953449,"lng":34.7771993},"southwest":{"lat":31.9907443,"lng":34.7672882}}},"partial_match":true,"place_id":"ChIJCzg8OYCzAhURRJsQJNFIdvQ","types":["route"]},{"address_components":[{"long_name":"Dan Street","short_name":"Dan St","types":["route"]},{"long_name":"Nehalim","short_name":"Nehalim","types":["locality","political"]},{"long_name":"Petach Tikva","short_name":"Petach Tikva","types":["administrative_area_level_2","political"]},{"long_name":"Center District","short_name":"Center District","types":["administrative_area_level_1","political"]},{"long_name":"Israel","short_name":"IL","types":["country","political"]}],"formatted_address":"Dan St, Nehalim, Israel","geometry":{"bounds":{"northeast":{"lat":32.0640588,"lng":34.9150735},"southwest":{"lat":32.0626319,"lng":34.9028406}},"location":{"lat":32.0638595,"lng":34.9086054},"location_type":"GEOMETRIC_CENTER","viewport":{"northeast":{"lat":32.0646943302915,"lng":34.9150735},"southwest":{"lat":32.0619963697085,"lng":34.9028406}}},"partial_match":true,"place_id":"ChIJV6mmAS00HRURCBjIpO2j4L4","types":["route"]},{"address_components":[{"long_name":"Dan Street","short_name":"Dan St","types":["route"]},{"long_name":"Kiryat Bialik","short_name":"Kiryat Bialik","types":["locality","political"]},{"long_name":"Haifa","short_name":"Haifa","types":["administrative_area_level_2","political"]},{"long_name":"Haifa District","short_name":"Haifa District","types":["administrative_area_level_1","political"]},{"long_name":"Israel","short_name":"IL","types":["country","political"]}],"formatted_address":"Dan St, Kiryat Bialik, Israel","geometry":{"bounds":{"northeast":{"lat":32.839368,"lng":35.091351},"southwest":{"lat":32.8357959,"lng":35.08895100000001}},"location":{"lat":32.837857,"lng":35.091196},"location_type":"GEOMETRIC_CENTER","viewport":{"northeast":{"lat":32.839368,"lng":35.0914999802915},"southwest":{"lat":32.8357959,"lng":35.0888020197085}}},"partial_match":true,"place_id":"ChIJ2V4_Mfu2HRURc6YahfVC-Ls","types":["route"]},{"address_components":[{"long_name":"Dan Street","short_name":"Dan St","types":["route"]},{"long_name":"Be'er Ya'akov","short_name":"Be'er Ya'akov","types":["locality","political"]},{"long_name":"Ramla","short_name":"Ramla","types":["administrative_area_level_2","political"]},{"long_name":"Center District","short_name":"Center District","types":["administrative_area_level_1","political"]},{"long_name":"Israel","short_name":"IL","types":["country","political"]}],"formatted_address":"Dan St, Be'er Ya'akov, Israel","geometry":{"bounds":{"northeast":{"lat":31.94059,"lng":34.8379474},"southwest":{"lat":31.9364738,"lng":34.836302}},"location":{"lat":31.938658,"lng":34.836474},"location_type":"GEOMETRIC_CENTER","viewport":{"northeast":{"lat":31.94059,"lng":34.83847368029149},"southwest":{"lat":31.9364738,"lng":34.83577571970849}}},"partial_match":true,"place_id":"ChIJT8ZuhN61AhURusUXxjy5qfM","types":["route"]},{"address_components":[{"long_name":"Dan Street","short_name":"Dan St","types":["route"]},{"long_name":"Yavne","short_name":"Yavne","types":["locality","political"]},{"long_name":"Rehovot","short_name":"Rehovot","types":["administrative_area_level_2","political"]},{"long_name":"Center District","short_name":"Center District","types":["administrative_area_level_1","political"]},{"long_name":"Israel","short_name":"IL","types":["country","political"]}],"formatted_address":"Dan St, Yavne, Israel","geometry":{"bounds":{"northeast":{"lat":31.894451,"lng":34.739432},"southwest":{"lat":31.892537,"lng":34.738522}},"location":{"lat":31.893727,"lng":34.739112},"location_type":"GEOMETRIC_CENTER","viewport":{"northeast":{"lat":31.8948429802915,"lng":34.7403259802915},"southwest":{"lat":31.8921450197085,"lng":34.7376280197085}}},"partial_match":true,"place_id":"ChIJVQMPbYWwAhUR4Leax8pvMqM","types":["route"]},{"address_components":[{"long_name":"Dan Street","short_name":"Dan St","types":["route"]},{"long_name":"Yuvalim","short_name":"Yuvalim","types":["locality","political"]},{"long_name":"Akko","short_name":"Akko","types":["administrative_area_level_2","political"]},{"long_name":"North District","short_name":"North District","types":["administrative_area_level_1","political"]},{"long_name":"Israel","short_name":"IL","types":["country","political"]}],"formatted_address":"Dan St, Yuvalim, Israel","geometry":{"bounds":{"northeast":{"lat":32.881938,"lng":35.275542},"southwest":{"lat":32.8733034,"lng":35.2723572}},"location":{"lat":32.8776447,"lng":35.2743557},"location_type":"GEOMETRIC_CENTER","viewport":{"northeast":{"lat":32.881938,"lng":35.275542},"southwest":{"lat":32.8733034,"lng":35.2723572}}},"partial_match":true,"place_id":"ChIJ8b28kkU0HBURti1gJI9MwO0","types":["route"]}]},"100":{"id":100,"name":"אזור תעשיות צבאים","areaId":128,"geodata":[]},"101":{"id":101,"name":"אזור תעשייה בני יהודה","areaId":2,"geodata":[{"address_components":[{"long_name":"Bnei Yehuda Industrial Zone","short_name":"Bnei Yehuda Industrial Zone","types":["establishment","point_of_interest"]}],"formatted_address":"Bnei Yehuda Industrial Zone","geometry":{"location":{"lat":32.803805,"lng":35.716419},"location_type":"APPROXIMATE","viewport":{"northeast":{"lat":32.80515398029149,"lng":35.71776798029151},"southwest":{"lat":32.80245601970849,"lng":35.71507001970851}}},"place_id":"ChIJ2XB340oQHBURaoqZNsENnw8","types":["bus_station","establishment","point_of_interest","transit_station"]}]},"102":{"id":102,"name":"אזור תעשייה נעמן","areaId":70,"geodata":[]},"103":{"id":103,"name":"אזור תעשייה שער בנימין","areaId":125,"geodata":[]},"104":{"id":104,"name":"אחווה","areaId":275,"geodata":[{"address_components":[{"long_name":"Ahva","short_name":"Ahva","types":["locality","political"]},{"long_name":"Ashkelon","short_name":"Ashkelon","types":["administrative_area_level_2","political"]},{"long_name":"South District","short_name":"South District","types":["administrative_area_level_1","political"]},{"long_name":"Israel","short_name":"IL","types":["country","political"]}],"formatted_address":"Ahva, Israel","geometry":{"bounds":{"northeast":{"lat":31.7451151,"lng":34.7718679},"southwest":{"lat":31.741419,"lng":34.7663059}},"location":{"lat":31.742893,"lng":34.767848},"location_type":"APPROXIMATE","viewport":{"northeast":{"lat":31.7451151,"lng":34.7718679},"southwest":{"lat":31.741419,"lng":34.7663059}}},"place_id":"ChIJpTf5zdu9AhUR_AaWnQuWWP4","types":["locality","political"]}]},"105":{"id":105,"name":"אחוזם","areaId":281,"geodata":[{"address_components":[{"long_name":"Ahuzam","short_name":"Ahuzam","types":["locality","political"]},{"long_name":"Ashkelon","short_name":"Ashkelon","types":["administrative_area_level_2","political"]},{"long_name":"South District","short_name":"South District","types":["administrative_area_level_1","political"]},{"long_name":"Israel","short_name":"IL","types":["country","political"]}],"formatted_address":"Ahuzam, Israel","geometry":{"bounds":{"northeast":{"lat":31.5602511,"lng":34.776701},"southwest":{"lat":31.547277,"lng":34.762846}},"location":{"lat":31.552682,"lng":34.770151},"location_type":"APPROXIMATE","viewport":{"northeast":{"lat":31.5602511,"lng":34.776701},"southwest":{"lat":31.547277,"lng":34.762846}}},"place_id":"ChIJifW3owGOAhURL_ytd2dy3FA","types":["locality","political"]}]},"106":{"id":106,"name":"אחוזת ברק","areaId":90,"geodata":[{"address_components":[{"long_name":"Ahuzat Barak","short_name":"Ahuzat Barak","types":["locality","political"]},{"long_name":"Yizrael","short_name":"Yizrael","types":["administrative_area_level_2","political"]},{"long_name":"North District","short_name":"North District","types":["administrative_area_level_1","political"]},{"long_name":"Israel","short_name":"IL","types":["country","political"]}],"formatted_address":"Ahuzat Barak, Israel","geometry":{"bounds":{"northeast":{"lat":32.6480769,"lng":35.342904},"southwest":{"lat":32.63947,"lng":35.3349011}},"location":{"lat":32.643101,"lng":35.338893},"location_type":"APPROXIMATE","viewport":{"northeast":{"lat":32.6480769,"lng":35.342904},"southwest":{"lat":32.63947,"lng":35.3349011}}},"place_id":"ChIJSyF-L9FRHBURuNSv_1-Vs7M","types":["locality","political"]}]},"107":{"id":107,"name":"אחוזת שושנה","areaId":128,"geodata":[{"address_components":[{"long_name":"Akhuzat Shoshana","short_name":"Akhuzat Shoshana","types":["locality","political"]},{"long_name":"Yizrael","short_name":"Yizrael","types":["administrative_area_level_2","political"]},{"long_name":"North District","short_name":"North District","types":["administrative_area_level_1","political"]},{"long_name":"Israel","short_name":"IL","types":["country","political"]}],"formatted_address":"Akhuzat Shoshana, Israel","geometry":{"location":{"lat":32.591026,"lng":35.521247},"location_type":"APPROXIMATE","viewport":{"northeast":{"lat":32.5923749802915,"lng":35.5225959802915},"southwest":{"lat":32.5896770197085,"lng":35.5198980197085}}},"place_id":"ChIJ3Z_olypDHBURtlf22Plg6G0","types":["locality","political"]}]},"108":{"id":108,"name":"אחיהוד","areaId":63,"geodata":[{"address_components":[{"long_name":"Ahihud","short_name":"Ahihud","types":["locality","political"]},{"long_name":"Akko","short_name":"Akko","types":["administrative_area_level_2","political"]},{"long_name":"North District","short_name":"North District","types":["administrative_area_level_1","political"]},{"long_name":"Israel","short_name":"IL","types":["country","political"]}],"formatted_address":"Ahihud, Israel","geometry":{"bounds":{"northeast":{"lat":32.910996,"lng":35.1836839},"southwest":{"lat":32.900956,"lng":35.167584}},"location":{"lat":32.907405,"lng":35.171715},"location_type":"APPROXIMATE","viewport":{"northeast":{"lat":32.910996,"lng":35.1836839},"southwest":{"lat":32.900956,"lng":35.167584}}},"place_id":"ChIJn-B5nQfLHRUReEbPtBHMgME","types":["locality","political"]}]},"109":{"id":109,"name":"אחיטוב","areaId":149,"geodata":[{"address_components":[{"long_name":"Ahituv","short_name":"Ahituv","types":["locality","political"]},{"long_name":"HaSharon","short_name":"HaSharon","types":["administrative_area_level_2","political"]},{"long_name":"Center District","short_name":"Center District","types":["administrative_area_level_1","political"]},{"long_name":"Israel","short_name":"IL","types":["country","political"]}],"formatted_address":"Ahituv, Israel","geometry":{"bounds":{"northeast":{"lat":32.395721,"lng":34.996821},"southwest":{"lat":32.3813189,"lng":34.978156}},"location":{"lat":32.387701,"lng":34.990826},"location_type":"APPROXIMATE","viewport":{"northeast":{"lat":32.395721,"lng":34.996821},"southwest":{"lat":32.3813189,"lng":34.978156}}},"place_id":"ChIJu-l6lx4RHRUR0blMzoQL2NQ","types":["locality","political"]}]},"110":{"id":110,"name":"אחיסמך","areaId":179,"geodata":[{"address_components":[{"long_name":"Ahisamakh","short_name":"Ahisamakh","types":["locality","political"]},{"long_name":"Ramla","short_name":"Ramla","types":["administrative_area_level_2","political"]},{"long_name":"Center District","short_name":"Center District","types":["administrative_area_level_1","political"]},{"long_name":"Israel","short_name":"IL","types":["country","political"]}],"formatted_address":"Ahisamakh, Israel","geometry":{"bounds":{"northeast":{"lat":31.945762,"lng":34.91758799999999},"southwest":{"lat":31.926979,"lng":34.89806799999999}},"location":{"lat":31.931906,"lng":34.908576},"location_type":"APPROXIMATE","viewport":{"northeast":{"lat":31.945762,"lng":34.91758799999999},"southwest":{"lat":31.926979,"lng":34.89806799999999}}},"partial_match":true,"place_id":"ChIJOXy3ZLXLAhURoJgIvWujKWI","types":["locality","political"]}]},"111":{"id":111,"name":"אחיעזר","areaId":174,"geodata":[{"address_components":[{"long_name":"Ahi'ezer","short_name":"Ahi'ezer","types":["locality","political"]},{"long_name":"Ramla","short_name":"Ramla","types":["administrative_area_level_2","political"]},{"long_name":"Center District","short_name":"Center District","types":["administrative_area_level_1","political"]},{"long_name":"Israel","short_name":"IL","types":["country","political"]}],"formatted_address":"Ahi'ezer, Israel","geometry":{"bounds":{"northeast":{"lat":31.99187,"lng":34.8813091},"southwest":{"lat":31.9723071,"lng":34.8601451}},"location":{"lat":31.981671,"lng":34.871821},"location_type":"APPROXIMATE","viewport":{"northeast":{"lat":31.99187,"lng":34.8813091},"southwest":{"lat":31.9723071,"lng":34.8601451}}},"partial_match":true,"place_id":"ChIJ33feQZjKAhURqwGITxIuR0w","types":["locality","political"]}]},"112":{"id":112,"name":"איבים","areaId":220,"geodata":[{"address_components":[{"long_name":"Ibim","short_name":"Ibim","types":["locality","political"]},{"long_name":"Ashkelon","short_name":"Ashkelon","types":["administrative_area_level_2","political"]},{"long_name":"South District","short_name":"South District","types":["administrative_area_level_1","political"]},{"long_name":"Israel","short_name":"IL","types":["country","political"]}],"formatted_address":"Ibim, Israel","geometry":{"location":{"lat":31.533597,"lng":34.609697},"location_type":"APPROXIMATE","viewport":{"northeast":{"lat":31.5349459802915,"lng":34.61104598029149},"southwest":{"lat":31.5322480197085,"lng":34.60834801970849}}},"partial_match":true,"place_id":"ChIJoztHmBqEAhUReFaM_e56Evg","types":["locality","political"]}]},"113":{"id":113,"name":"איג'ניסיניא","areaId":119,"geodata":[{"address_components":[{"long_name":"Ijnisinia","short_name":"Ijnisinia","types":["locality","political"]}],"formatted_address":"Ijnisinia","geometry":{"location":{"lat":32.273099,"lng":35.216532},"location_type":"APPROXIMATE","viewport":{"northeast":{"lat":32.27444798029151,"lng":35.2178809802915},"southwest":{"lat":32.27175001970851,"lng":35.2151830197085}}},"partial_match":true,"place_id":"ChIJY44uauDhHBURJlFy1UZh8q4","types":["locality","political"]}]},"114":{"id":114,"name":"אידמית","areaId":15,"geodata":[{"address_components":[{"long_name":"Adamit","short_name":"Adamit","types":["locality","political"]},{"long_name":"Akko","short_name":"Akko","types":["administrative_area_level_2","political"]},{"long_name":"North District","short_name":"North District","types":["administrative_area_level_1","political"]},{"long_name":"Israel","short_name":"IL","types":["country","political"]}],"formatted_address":"Adamit, Israel","geometry":{"bounds":{"northeast":{"lat":33.081365,"lng":35.216692},"southwest":{"lat":33.076936,"lng":35.202116}},"location":{"lat":33.078842,"lng":35.20951},"location_type":"APPROXIMATE","viewport":{"northeast":{"lat":33.081365,"lng":35.216692},"southwest":{"lat":33.076936,"lng":35.202116}}},"partial_match":true,"place_id":"ChIJNYLT31PTHRURPDSQInZ6IMM","types":["locality","political"]}]},"115":{"id":115,"name":"אייל","areaId":139,"geodata":[{"address_components":[{"long_name":"Eyal","short_name":"Eyal","types":["locality","political"]},{"long_name":"Petach Tikva","short_name":"Petach Tikva","types":["administrative_area_level_2","political"]},{"long_name":"Center District","short_name":"Center District","types":["administrative_area_level_1","political"]},{"long_name":"Israel","short_name":"IL","types":["country","political"]}],"formatted_address":"Eyal, Israel","geometry":{"bounds":{"northeast":{"lat":32.2150821,"lng":34.9848551},"southwest":{"lat":32.2083409,"lng":34.973452}},"location":{"lat":32.210711,"lng":34.978259},"location_type":"APPROXIMATE","viewport":{"northeast":{"lat":32.2150821,"lng":34.9848551},"southwest":{"lat":32.2083409,"lng":34.973452}}},"place_id":"ChIJXVddf3Y8HRURloHs1g83RYM","types":["locality","political"]}]},"116":{"id":116,"name":"איילת השחר","areaId":47,"geodata":[{"address_components":[{"long_name":"Ayelet HaShahar","short_name":"Ayelet HaShahar","types":["locality","political"]},{"long_name":"Tzfat","short_name":"Tzfat","types":["administrative_area_level_2","political"]},{"long_name":"North District","short_name":"North District","types":["administrative_area_level_1","political"]},{"long_name":"Israel","short_name":"IL","types":["country","political"]}],"formatted_address":"Ayelet HaShahar, Israel","geometry":{"bounds":{"northeast":{"lat":33.0313211,"lng":35.5877309},"southwest":{"lat":33.014833,"lng":35.5680279}},"location":{"lat":33.021115,"lng":35.576732},"location_type":"APPROXIMATE","viewport":{"northeast":{"lat":33.0313211,"lng":35.5877309},"southwest":{"lat":33.014833,"lng":35.5680279}}},"place_id":"ChIJ_-dVdZIfHBURTjkr4UVXeoQ","types":["locality","political"]}]},"117":{"id":117,"name":"איכתאבא","areaId":119,"geodata":[{"address_components":[{"long_name":"Iktaba","short_name":"Iktaba","types":["locality","political"]}],"formatted_address":"Iktaba","geometry":{"location":{"lat":32.326014,"lng":35.054225},"location_type":"APPROXIMATE","viewport":{"northeast":{"lat":32.3273629802915,"lng":35.0555739802915},"southwest":{"lat":32.3246650197085,"lng":35.0528760197085}}},"partial_match":true,"place_id":"ChIJm6wXnukZHRURP-aQEz-Blk0","types":["locality","political"]}]},"118":{"id":118,"name":"אילון","areaId":15,"geodata":[{"address_components":[{"long_name":"Eilon","short_name":"Eilon","types":["locality","political"]},{"long_name":"Akko","short_name":"Akko","types":["administrative_area_level_2","political"]},{"long_name":"North District","short_name":"North District","types":["administrative_area_level_1","political"]},{"long_name":"Israel","short_name":"IL","types":["country","political"]}],"formatted_address":"Eilon, Israel","geometry":{"bounds":{"northeast":{"lat":33.068972,"lng":35.227492},"southwest":{"lat":33.057826,"lng":35.207963}},"location":{"lat":33.062526,"lng":35.219162},"location_type":"APPROXIMATE","viewport":{"northeast":{"lat":33.068972,"lng":35.227492},"southwest":{"lat":33.057826,"lng":35.207963}}},"place_id":"ChIJB7CG87UsHBURs50TBRGKFkc","types":["locality","political"]}]},"119":{"id":119,"name":"אילות","areaId":311,"geodata":[{"address_components":[{"long_name":"Eilot Street","short_name":"Eilot St","types":["route"]},{"long_name":"Eilat","short_name":"Eilat","types":["locality","political"]},{"long_name":"Be'er Sheva","short_name":"Be'er Sheva","types":["administrative_area_level_2","political"]},{"long_name":"South District","short_name":"South District","types":["administrative_area_level_1","political"]},{"long_name":"Israel","short_name":"IL","types":["country","political"]}],"formatted_address":"Eilot St, Eilat, Israel","geometry":{"bounds":{"northeast":{"lat":29.5605928,"lng":34.954988},"southwest":{"lat":29.549484,"lng":34.9457558}},"location":{"lat":29.5553901,"lng":34.9462689},"location_type":"GEOMETRIC_CENTER","viewport":{"northeast":{"lat":29.5605928,"lng":34.954988},"southwest":{"lat":29.549484,"lng":34.9457558}}},"place_id":"ChIJs6fFoQJyABURjpkgtMGbh_w","types":["route"]}]},"120":{"id":120,"name":"אילנות","areaId":139,"geodata":[{"address_components":[{"long_name":"Derech Hailanot","short_name":"Derech Hailanot","types":["route"]},{"long_name":"Beit Yitshak Sha'ar Hefer","short_name":"Beit Yitshak Sha'ar Hefer","types":["locality","political"]},{"long_name":"HaSharon","short_name":"HaSharon","types":["administrative_area_level_2","political"]},{"long_name":"Center District","short_name":"Center District","types":["administrative_area_level_1","political"]},{"long_name":"Israel","short_name":"IL","types":["country","political"]}],"formatted_address":"Derech Hailanot, Beit Yitshak Sha'ar Hefer, Israel","geometry":{"bounds":{"northeast":{"lat":32.3337439,"lng":34.895946},"southwest":{"lat":32.3317523,"lng":34.883917}},"location":{"lat":32.3331861,"lng":34.889848},"location_type":"GEOMETRIC_CENTER","viewport":{"northeast":{"lat":32.3340970802915,"lng":34.895946},"southwest":{"lat":32.3313991197085,"lng":34.883917}}},"place_id":"ChIJDYOZh2sVHRURFg7aUxGttPo","types":["route"]},{"address_components":[{"long_name":"Derech Hailanot","short_name":"Derech Hailanot","types":["route"]},{"long_name":"Bitan Aharon","short_name":"Bitan Aharon","types":["locality","political"]},{"long_name":"HaSharon","short_name":"HaSharon","types":["administrative_area_level_2","political"]},{"long_name":"Center District","short_name":"Center District","types":["administrative_area_level_1","political"]},{"long_name":"Israel","short_name":"IL","types":["country","political"]}],"formatted_address":"Derech Hailanot, Bitan Aharon, Israel","geometry":{"bounds":{"northeast":{"lat":32.3661645,"lng":34.870279},"southwest":{"lat":32.363911,"lng":34.868222}},"location":{"lat":32.3649126,"lng":34.8699493},"location_type":"GEOMETRIC_CENTER","viewport":{"northeast":{"lat":32.3663867302915,"lng":34.8705994802915},"southwest":{"lat":32.3636887697085,"lng":34.8679015197085}}},"place_id":"ChIJcSF9jNYUHRURaIbfY5qUb7Y","types":["route"]}]},"121":{"id":121,"name":"אילניה","areaId":96,"geodata":[{"address_components":[{"long_name":"Ilaniya","short_name":"Ilaniya","types":["locality","political"]},{"long_name":"Kinneret","short_name":"Kinneret","types":["administrative_area_level_2","political"]},{"long_name":"North District","short_name":"North District","types":["administrative_area_level_1","political"]},{"long_name":"Israel","short_name":"IL","types":["country","political"]}],"formatted_address":"Ilaniya, Israel","geometry":{"bounds":{"northeast":{"lat":32.761386,"lng":35.410783},"southwest":{"lat":32.748636,"lng":35.4003809}},"location":{"lat":32.753908,"lng":35.408188},"location_type":"APPROXIMATE","viewport":{"northeast":{"lat":32.761386,"lng":35.410783},"southwest":{"lat":32.748636,"lng":35.4003809}}},"place_id":"ChIJiTUFvchHHBURRyumDWh5e_I","types":["locality","political"]}]},"122":{"id":122,"name":"אילת","areaId":311,"geodata":[{"address_components":[{"long_name":"Eilat","short_name":"Eilat","types":["locality","political"]},{"long_name":"Be'er Sheva","short_name":"Be'er Sheva","types":["administrative_area_level_2","political"]},{"long_name":"South District","short_name":"South District","types":["administrative_area_level_1","political"]},{"long_name":"Israel","short_name":"IL","types":["country","political"]}],"formatted_address":"Eilat, Israel","geometry":{"bounds":{"northeast":{"lat":29.7630079,"lng":35.0087689},"southwest":{"lat":29.491846,"lng":34.899364}},"location":{"lat":29.557669,"lng":34.951925},"location_type":"APPROXIMATE","viewport":{"northeast":{"lat":29.687695,"lng":35.0087689},"southwest":{"lat":29.491846,"lng":34.899364}}},"partial_match":true,"place_id":"ChIJC155JONxABUR2_Z3VfiVHf4","types":["locality","political"]}]},"123":{"id":123,"name":"אימאתין","areaId":120,"geodata":[{"address_components":[{"long_name":"Imatin","short_name":"Imatin","types":["locality","political"]}],"formatted_address":"Imatin","geometry":{"location":{"lat":32.192361,"lng":35.159475},"location_type":"APPROXIMATE","viewport":{"northeast":{"lat":32.19370998029149,"lng":35.1608239802915},"southwest":{"lat":32.1910120197085,"lng":35.1581260197085}}},"partial_match":true,"place_id":"ChIJZQgR3KchHRURJP7feuqAV1o","types":["locality","political"]}]},"124":{"id":124,"name":"אימריש","areaId":207,"geodata":[{"address_components":[{"long_name":"Imrish","short_name":"Imrish","types":["locality","political"]}],"formatted_address":"Imrish","geometry":{"location":{"lat":31.470305,"lng":34.999744},"location_type":"APPROXIMATE","viewport":{"northeast":{"lat":31.4716539802915,"lng":35.0010929802915},"southwest":{"lat":31.4689560197085,"lng":34.9983950197085}}},"partial_match":true,"place_id":"ChIJqRl-2jPwAhURoGCxHvUsm28","types":["locality","political"]}]},"125":{"id":125,"name":"איסכאכא","areaId":124,"geodata":[]},"126":{"id":126,"name":"אירוס","areaId":182,"geodata":[{"address_components":[{"long_name":"Irus","short_name":"Irus","types":["locality","political"]},{"long_name":"Rehovot","short_name":"Rehovot","types":["administrative_area_level_2","political"]},{"long_name":"Center District","short_name":"Center District","types":["administrative_area_level_1","political"]},{"long_name":"Israel","short_name":"IL","types":["country","political"]}],"formatted_address":"Irus, Israel","geometry":{"location":{"lat":31.928595,"lng":34.776605},"location_type":"APPROXIMATE","viewport":{"northeast":{"lat":31.92994398029149,"lng":34.7779539802915},"southwest":{"lat":31.9272460197085,"lng":34.7752560197085}}},"partial_match":true,"place_id":"ChIJnSEad8u2AhURBZU44ytVuZc","types":["locality","political"]},{"address_components":[{"long_name":"Hairus Street","short_name":"Hairus St","types":["route"]},{"long_name":"Kiryat Ekron","short_name":"Kiryat Ekron","types":["locality","political"]},{"long_name":"Rehovot","short_name":"Rehovot","types":["administrative_area_level_2","political"]},{"long_name":"Center District","short_name":"Center District","types":["administrative_area_level_1","political"]},